,id,Airport Name,City,Country,IATA Code,ICAO Code,Latitude,Longitude,Altitude,UTC TimeZone,DST,Continent/State
0,1580,Plzeň-Líně Airport,Line,,\N,LKLN,49.6752014,13.2746,1188,1,E,Europe/Prague
1,7036,Bagram Air Base,Kabul,Afghanistan,OAI,OAIX,34.9460983,69.2649994,4895,4.5,U,Asia/Kabul
2,8146,Sharana Airstrip,Sharona,Afghanistan,OAS,OASA,33.12575,68.838517,7340,4.5,N,Asia/Kabul
3,2056,Konduz Airport,Kunduz,Afghanistan,UND,OAUZ,36.6651001,68.9107971,1457,4.5,U,Asia/Kabul
4,10057,Farah Airport,Farah,Afghanistan,FAH,OAFR,32.3670006,62.1829987,3083,4.3,N,\N
5,7868,Camp Bastion Airport,Camp Bastion,Afghanistan,OAZ,OAZI,31.8638,64.2246017,2943,4.5,N,Asia/Kabul
6,13469,Ghazni Airport,Ghazni,Afghanistan,GZI,OAGN,33.5312004,68.4129028,7150,4.5,N,\N
7,8127,Khost Airport,Khost,Afghanistan,KHT,OAKS,33.3334007,69.9520035,3756,4.5,N,Asia/Kabul
8,2050,Hamid Karzai International Airport,Kabul,Afghanistan,KBL,OAKB,34.565899,69.212303,5877,4.5,U,Asia/Kabul
9,2049,Jalalabad Airport,Jalalabad,Afghanistan,JAA,OAJL,34.3997993,70.4985962,1814,4.5,U,Asia/Kabul
10,2052,Maimana Airport,Maimama,Afghanistan,MMZ,OAMN,35.9308014,64.7609024,2743,4.5,U,Asia/Kabul
11,2051,Kandahar Airport,Kandahar,Afghanistan,KDH,OAKN,31.5058002,65.8478012,3337,4.5,U,Asia/Kabul
12,2054,Shindand Airport,Shindand,Afghanistan,OAH,OASD,33.3913002,62.2610016,3773,4.5,U,Asia/Kabul
13,2055,Sheberghan Airport,Sheberghan,Afghanistan,\N,OASG,36.7508011,65.9132004,1053,4.5,U,Asia/Kabul
14,2048,Herat Airport,Herat,Afghanistan,HEA,OAHR,34.2099991,62.2282982,3206,4.5,U,Asia/Kabul
15,2053,Mazar I Sharif Airport,Mazar-i-sharif,Afghanistan,MZR,OAMS,36.7069016,67.2097015,1284,4.5,U,Asia/Kabul
16,7500,Zaranj Airport,Zaranj,Afghanistan,ZAJ,OAZJ,30.972222,61.865833,1572,4.5,U,Asia/Kabul
17,7499,Tarin Kowt Airport,Tarin Kowt,Afghanistan,TII,OATN,32.6041985,65.865799,4429,4.5,U,Asia/Kabul
18,7501,Chakcharan Airport,Chaghcharan,Afghanistan,CCN,OACC,34.5330009,65.2669983,7383,4.5,U,Asia/Kabul
19,5922,Fayzabad Airport,Faizabad,Afghanistan,FBD,OAFZ,37.121101,70.518097,3872,4.5,U,Asia/Kabul
20,8773,Bost Airport,Lashkar Gah,Afghanistan,BST,OABT,31.5597,64.3649979,2464,4.5,U,Asia/Kabul
21,8267,Shank Air Base,Shank,Afghanistan,OAA,OASH,33.9225,69.0772222,6890,4.5,N,Asia/Kabul
22,8825,Bamiyan Airport,Bamyan,Afghanistan,BIN,OABN,34.8170013,67.8170013,8367,4.5,N,Asia/Kabul
23,11869,Gjadër Air Base,Gjadër,Albania,\N,LAGJ,41.895199,19.5987,23,\N,\N,\N
24,11872,Vlorë Air Base,Vlorë,Albania,\N,LAVL,40.4761009,19.4741993,3,\N,\N,\N
25,11870,Kukës Airport,Kukës,Albania,\N,LAKU,42.033699,20.4158993,1120,\N,\N,\N
26,11871,Kuçovë Air Base,Kuçovë,Albania,\N,LAKV,40.7719002,19.9018993,135,\N,\N,\N
27,1190,Tirana International Airport Mother Teresa,Tirana,Albania,TIA,LATI,41.4146996,19.7206001,126,1,E,Europe/Tirane
28,243,Ain el Beida Airport,Ouargla,Algeria,OGX,DAUU,31.9172001,5.41277981,492,1,N,Africa/Algiers
29,209,Soummam Airport,Bejaja,Algeria,BJA,DAAE,36.7120018,5.06992006,20,1,N,Africa/Algiers
30,208,Bou Saada Airport,Bou Saada,Algeria,BUJ,DAAD,35.3325005,4.2063899,1506,1,N,Africa/Algiers
31,210,Houari Boumediene Airport,Algier,Algeria,ALG,DAAG,36.6910019,3.21540999,82,1,N,Africa/Algiers
32,212,Boufarik Airport,Boufarik,Algeria,\N,DAAK,36.545799,2.87611,335,1,N,Africa/Algiers
33,213,Reggane Airport,Reggan,Algeria,\N,DAAN,26.7101,0.285647,955,1,N,Africa/Algiers
34,211,Djanet Inedbirene Airport,Djanet,Algeria,DJG,DAAJ,24.292801,9.45244,3176,1,N,Africa/Algiers
35,242,Timimoun Airport,Timimoun,Algeria,TMX,DAUT,29.2371006,0.27603301,1027,1,N,Africa/Algiers
36,5553,Béchar Boudghene Ben Ali Lotfi Airport,Béchar,Algeria,CBH,DAOR,31.6457005,-2.26986003,2661,1,N,Africa/Algiers
37,5554,Bordj Badji Mokhtar Airport,Bordj Badji Mokhtar,Algeria,BMW,DATM,21.375,0.92388898,1303,1,N,Africa/Algiers
38,6492,Ain Arnat Airport,Setif,Algeria,QSF,DAAS,36.1781006,5.32449007,3360,1,U,Africa/Algiers
39,5552,Batna Airport,Batna,Algeria,BLJ,DABT,35.7521019,6.30858994,2697,1,N,Africa/Algiers
40,244,In Aménas Airport,Zarzaitine,Algeria,IAM,DAUZ,28.0515,9.64291,1847,1,N,Africa/Algiers
41,207,Blida Airport,Blida,Algeria,QLD,DAAB,36.5036011,2.81416988,535,1,N,Africa/Algiers
42,5555,Guemar Airport,Guemar,Algeria,ELU,DAUO,33.5113983,6.77679014,203,1,N,Africa/Algiers
43,232,Sidi Bel Abbes Airport,Sidi Bel Abbes,Algeria,BFW,DAOS,35.1717987,-0.59327501,1614,1,N,Africa/Algiers
44,231,Es Senia Airport,Oran,Algeria,ORN,DAOO,35.6239014,-0.62118298,295,1,N,Africa/Algiers
45,234,Touat Cheikh Sidi Mohamed Belkebir Airport,Adrar,Algeria,AZR,DAUA,27.8376007,-0.186414,919,1,N,Africa/Algiers
46,233,Ghriss Airport,Ghriss,Algeria,MUW,DAOV,35.2076988,0.14714199,1686,1,N,Africa/Algiers
47,229,Tafaraoui Airport,Oran,Algeria,TAF,DAOL,35.5424004,-0.532278,367,1,N,Africa/Algiers
48,228,Ech Cheliff Airport,Ech-cheliff,Algeria,CFK,DAOI,36.2126999,1.33176994,463,1,N,Africa/Algiers
49,230,Zenata – Messali El Hadj Airport,Tlemcen,Algeria,TLM,DAON,35.0167007,-1.45000005,814,1,N,Africa/Algiers
50,238,Oued Irara Airport,Hassi Messaoud,Algeria,HME,DAUH,31.6730003,6.14043999,463,1,N,Africa/Algiers
51,237,Noumérat - Moufdi Zakaria Airport,Ghardaia,Algeria,GHA,DAUG,32.3841019,3.79411006,1512,1,N,Africa/Algiers
52,240,Touggourt Sidi Madhi Airport,Touggourt,Algeria,TGR,DAUK,33.0677986,6.08866978,279,1,N,Africa/Algiers
53,239,In Salah Airport,In Salah,Algeria,INZ,DAUI,27.2509995,2.51202011,896,1,N,Africa/Algiers
54,236,El Golea Airport,El Golea,Algeria,ELG,DAUE,30.5713005,2.85959005,1306,1,N,Africa/Algiers
55,235,Biskra Airport,Biskra,Algeria,BSK,DAUB,34.7933006,5.73823023,289,1,N,Africa/Algiers
56,241,Laghouat Airport,Laghouat,Algeria,LOO,DAUL,33.7644005,2.92833996,2510,1,N,Africa/Algiers
57,218,Mecheria Airport,Mecheria,Algeria,MZW,DAAY,33.5359001,-0.24235301,3855,1,N,Africa/Algiers
58,217,Jijel Ferhat Abbas Airport,Jijel,Algeria,GJL,DAAV,36.7951012,5.87361002,36,1,N,Africa/Algiers
59,220,Rabah Bitat Airport,Annaba,Algeria,AAE,DABB,36.822201,7.809174,16,1,N,Africa/Algiers
60,219,Relizane Airport,Relizane,Algeria,\N,DAAZ,35.752201,0.626272,282,1,N,Africa/Algiers
61,215,Ain Oussera Airport,Ain Oussera,Algeria,\N,DAAQ,35.5253983,2.87871003,2132,1,N,Africa/Algiers
62,214,Illizi Takhamalt Airport,Illizi,Algeria,VVZ,DAAP,26.7234993,8.62265015,1778,1,N,Africa/Algiers
63,216,Aguenar – Hadj Bey Akhamok Airport,Tamanrasset,Algeria,TMR,DAAT,22.8115005,5.45107985,4518,1,N,Africa/Algiers
64,226,Bou Sfer Airport,Bou Sfer,Algeria,\N,DAOE,35.7354012,-0.80538899,187,1,N,Africa/Algiers
65,225,Bou Chekif Airport,Tiaret,Algeria,TID,DAOB,35.3410988,1.46315002,3245,1,N,Africa/Algiers
66,227,Tindouf Airport,Tindouf,Algeria,TIN,DAOF,27.7003994,-8.16709995,1453,1,N,Africa/Algiers
67,222,Cheikh Larbi Tébessi Airport,Tebessa,Algeria,TEE,DABS,35.4315987,8.12071991,2661,1,N,Africa/Algiers
68,221,Mohamed Boudiaf International Airport,Constantine,Algeria,CZL,DABC,36.276001,6.62038994,2265,1,N,Africa/Algiers
69,224,Hassi R'Mel Airport,Tilrempt,Algeria,HRM,DAFH,32.9304008,3.31153989,2540,1,N,Africa/Algiers
70,13448,El Bayadh Airport,El Bayadh,Algeria,EBH,DAOY,33.7216667,1.0925,4493,1,N,\N
71,7408,Tsletsi Airport,Djelfa,Algeria,QDJ,DAFI,34.6657,3.351,3753,1,U,Africa/Algiers
72,1970,Pago Pago International Airport,Pago Pago,American Samoa,PPG,NSTU,-14.3310003,-170.710007,32,-11,U,Pacific/Pago_Pago
73,7627,Fitiuta Airport,Fiti\'uta,American Samoa,FTI,NSFQ,-14.2172,-169.425003,110,-11,U,Pacific/Pago_Pago
74,7409,Nzagi Airport,Nzagi,Angola,NZA,FNZG,-7.71693993,21.3582001,2431,1,U,Africa/Luanda
75,962,Xangongo Airport,Xangongo,Angola,XGN,FNXA,-16.7553997,14.9652996,3635,1,N,Africa/Luanda
76,7411,Lucapa Airport,Lucapa,Angola,LBZ,FNLK,-8.44572735,20.7320862,3029,1,U,Africa/Luanda
77,960,Luena Airport,Luena,Angola,LUO,FNUE,-11.7680998,19.8976994,4360,1,N,Africa/Luanda
78,959,Lubango Airport,Lubango,Angola,SDD,FNUB,-14.9246998,13.5749998,5778,1,N,Africa/Luanda
79,961,Uige Airport,Uige,Angola,UGO,FNUG,-7.60306978,15.0277996,2720,1,N,Africa/Luanda
80,5630,Catumbela Airport,Catumbela,Angola,CBT,FNCT,-12.4792,13.4869,23,1,N,Africa/Luanda
81,5631,Dundo Airport,Dundo,Angola,DUE,FNDU,-7.40088987,20.8185005,2451,1,N,Africa/Luanda
82,11806,Sumbe Airport,Sumbe,Angola,NDD,FNSU,-11.1679001,13.8474998,36,\N,\N,\N
83,5633,Namibe Airport,Mocamedes,Angola,MSZ,FNMO,-15.2612,12.1468,210,1,N,Africa/Luanda
84,7412,Capanda Airport,Kapanda,Angola,KNP,FNCP,-9.76937008,15.4553194,3366,1,U,Africa/Luanda
85,5632,Ngjiva Pereira Airport,Ondjiva,Angola,VPE,FNGI,-17.0435009,15.6837997,3566,1,N,Africa/Luanda
86,949,Kuito Airport,Kuito,Angola,SVP,FNKU,-12.4046001,16.9473991,5618,1,N,Africa/Luanda
87,948,Nova Lisboa Airport,Huambo,Angola,NOV,FNHU,-12.8088999,15.7605,5587,1,N,Africa/Luanda
88,951,Quatro de Fevereiro Airport,Luanda,Angola,LAD,FNLU,-8.85837,13.2312,243,1,N,Africa/Luanda
89,950,Lobito Airport,Lobito,Angola,\N,FNLB,-12.3711996,13.5366001,10,1,N,Africa/Luanda
90,945,Benguela Airport,Benguela,Angola,BUG,FNBG,-12.6090002,13.4036999,118,1,N,Africa/Luanda
91,944,Mbanza Congo Airport,M'banza-congo,Angola,SSY,FNBC,-6.26989985,14.2469997,1860,1,N,Africa/Luanda
92,946,Cabinda Airport,Cabinda,Angola,CAB,FNCA,-5.59699011,12.1884003,66,1,N,Africa/Luanda
93,957,Saurimo Airport,Saurimo,Angola,VHC,FNSA,-9.68906975,20.4319,3584,1,N,Africa/Luanda
94,955,Negage Airport,Negage,Angola,GXG,FNNG,-7.75450993,15.2876997,4105,1,N,Africa/Luanda
95,956,Porto Amboim Airport,Porto Amboim,Angola,PBN,FNPA,-10.7220001,13.7655001,16,1,N,Africa/Luanda
96,952,Malanje Airport,Malanje,Angola,MEG,FNMA,-9.52509022,16.3124008,3868,1,N,Africa/Luanda
97,958,Soyo Airport,Soyo,Angola,SZA,FNSO,-6.14108992,12.3718004,15,1,N,Africa/Luanda
98,953,Menongue Airport,Menongue,Angola,SPP,FNME,-14.6576004,17.7198009,4469,1,N,Africa/Luanda
99,2900,Clayton J Lloyd International Airport,The Valley,Anguilla,AXA,TQPF,18.2048,-63.055099,127,-4,U,America/Anguilla
100,2661,Teniente Rodolfo Marsh Martin Base,Isla Rey Jorge,Antarctica,TNM,SCRM,-62.1907997,-58.9866982,147,12,U,Antarctica/South_Pole
101,2493,Marambio Base,Marambio Base,Antarctica,\N,SAWB,-64.2382965,-56.6307983,760,12,U,Antarctica/South_Pole
102,7947,McMurdo Station Ice Runway,Ross Island,Antarctica,\N,NZIR,-77.8539963,166.468994,1,12,N,Antarctica/South_Pole
103,7578,Wilkins Runway,Budd Coast,Antarctica,\N,YWKS,-66.690833,111.523611,2529,12,U,Antarctica/South_Pole
104,9124,McMurdo Station Pegasus Field,McMurdo Station,Antarctica,\N,NZPG,-77.9634018,166.524994,18,12,Z,Antarctica/South_Pole
105,2038,Williams Field,Weydon,Antarctica,\N,NZWD,-77.8674011,167.057007,68,12,N,Antarctica/South_Pole
106,2033,South Pole Station Airport,Stephen's Island,Antarctica,\N,NZSP,-90,0,9300,12,U,Antarctica/South_Pole
107,2874,V.C. Bird International Airport,Antigua,Antigua and Barbuda,ANU,TAPA,17.1367,-61.792702,62,-4,U,America/Antigua
108,6074,Codrington Airport,Codrington,Antigua and Barbuda,BBQ,TAPH,17.635799,-61.828602,15,-4,U,America/Antigua
109,2515,Villa Gesell Airport,Villa Gesell,Argentina,VLG,SAZV,-37.2354,-57.0292,32,-3,N,America/Buenos_Aires
110,2517,Aviador C. Campos Airport,San Martin Des Andes,Argentina,CPC,SAZY,-40.075401,-71.137299,2569,-3,N,America/Argentina/Salta
111,2516,Cutral-Co Airport,Cutralco,Argentina,CUT,SAZW,-38.9397011,-69.2646027,2132,-3,N,America/Argentina/Salta
112,2513,San Carlos De Bariloche Airport,San Carlos De Bariloche,Argentina,BRC,SAZS,-41.151199,-71.157501,2774,-3,N,America/Argentina/Salta
113,2512,Santa Rosa Airport,Santa Rosa,Argentina,RSA,SAZR,-36.588299,-64.275703,630,-3,N,America/Argentina/Salta
114,2514,Héroes De Malvinas Airport,Tandil,Argentina,TDL,SAZT,-37.2374001,-59.2279015,574,-3,N,America/Buenos_Aires
115,7229,Sierra Grande Airport,Sierra Grande,Argentina,SGV,SAVS,-41.5917015,-65.3394012,688,-3,N,America/Argentina/Salta
116,7230,Cabo F.A.A. H. R. Bordón Airport,Ingeniero Jacobacci,Argentina,IGB,SAVJ,-41.3209,-69.5748978,2925,-3,N,America/Argentina/Salta
117,7222,Rincon De Los Sauces Airport,Rincon de los Sauces,Argentina,RDS,SAHS,-37.3905983,-68.9041977,1968,-3,N,America/Argentina/Salta
118,11929,Presidente Néstor Kirchner Regionsl Airport,Villa Maria,Argentina,\N,SAOV,-32.3201,-63.22663,670,\N,\N,\N
119,2445,San Fernando Airport,San Fernando,Argentina,FDO,SADF,-34.4532,-58.5896,10,-3,N,America/Buenos_Aires
120,2444,Chamical Airport,Gobernador Gordillo,Argentina,\N,SACT,-30.3453007,-66.293602,1502,-3,N,America/Argentina/La_Rioja
121,2503,Olavarria Airport,Olavarria,Argentina,OVR,SAZF,-36.8899994,-60.2165985,551,-3,N,America/Buenos_Aires
122,2502,Brigadier D.H.E. Ruiz Airport,Colonel Suarez,Argentina,CSZ,SAZC,-37.446098,-61.889301,767,-3,N,America/Buenos_Aires
123,2504,General Pico Airport,General Pico,Argentina,GPO,SAZG,-35.6962013,-63.7583008,459,-3,N,America/Argentina/Salta
124,2500,Santa Cruz Airport,Santa Cruz,Argentina,RZA,SAWU,-50.0165,-68.5792,364,-3,N,America/Argentina/Rio_Gallegos
125,2499,Perito Moreno Airport,Perito Moreno,Argentina,PMQ,SAWP,-46.537899,-70.978699,1410,-3,N,America/Argentina/Rio_Gallegos
126,2501,Comandante Espora Airport,Bahia Blanca,Argentina,BHI,SAZB,-38.725,-62.1693,246,-3,N,America/Buenos_Aires
127,2509,Presidente Peron Airport,Neuquen,Argentina,NQN,SAZN,-38.949001,-68.155701,895,-3,N,America/Argentina/Salta
128,2508,Ástor Piazzola International Airport,Mar Del Plata,Argentina,MDQ,SAZM,-37.9342,-57.5733,72,-3,N,America/Buenos_Aires
129,2511,Comodoro Pedro Zanni Airport,Pehuajo,Argentina,PEH,SAZP,-35.8446,-61.8576,278,-3,N,America/Buenos_Aires
130,2505,Tres Arroyos Airport,Tres Arroyos,Argentina,OYO,SAZH,-38.3869,-60.3297,400,-3,N,America/Buenos_Aires
131,2506,Bolivar Airport,Bolivar,Argentina,\N,SAZI,-36.1866,-61.0764,308,-3,N,America/Buenos_Aires
132,6032,Santa Teresita Airport,Santa Teresita,Argentina,SST,SAZL,-36.5423,-56.7218,9,-3,N,America/Buenos_Aires
133,6031,Gobernador Gregores Airport,Gobernador Gregores,Argentina,GGS,SAWR,-48.7831,-70.150002,356,-3,N,America/Argentina/Rio_Gallegos
134,6033,Necochea Airport,Necochea,Argentina,NEC,SAZO,-38.4831,-58.8172,72,-3,N,America/Buenos_Aires
135,2437,Gualeguaychu Airport,Gualeguaychu,Argentina,GHU,SAAG,-33.0103,-58.6131,75,-3,N,America/Cordoba
136,2438,Junin Airport,Junin,Argentina,JNI,SAAJ,-34.5459,-60.9306,262,-3,N,America/Buenos_Aires
137,2436,Comodoro Pierrestegui Airport,Concordia,Argentina,COC,SAAC,-31.2969,-57.9966,112,-3,N,America/Cordoba
138,4061,El Calafate Airport,El Calafate,Argentina,FTE,SAWC,-50.2803,-72.053101,669,-3,N,America/Argentina/Rio_Gallegos
139,3988,Ministro Pistarini International Airport,Buenos Aires,Argentina,EZE,SAEZ,-34.8222,-58.5358,67,-3,N,America/Buenos_Aires
140,13695,Sunchales Aeroclub Airport,Sunchales,Argentina,NCJ,SAFS,-30.9575,-61.5283,311,-3,N,\N
141,6027,General Enrique Mosconi Airport,Tartagal,Argentina,TTG,SAST,-22.6196003,-63.7937012,1472,-3,N,America/Argentina/Salta
142,6028,Las Heras Airport,Las Heras,Argentina,LHS,SAVH,-46.5382996,-68.9653015,1082,-3,N,America/Argentina/Rio_Gallegos
143,8914,Termas de Río Hondo international Airport,Rio Hondo,Argentina,RHD,SANR,-27.4966,-64.93595,935,-3,S,America/Cordoba
144,7312,Jose De San Martin Airport,Jose de San Martin,Argentina,JSM,SAWS,-44.0485992,-70.4589005,2407,-3,N,America/Catamarca
145,7311,D. Casimiro Szlapelis Airport,Alto Rio Senguer,Argentina,ARR,SAVR,-45.013599,-70.812202,2286,-3,N,America/Catamarca
146,2441,Sauce Viejo Airport,Santa Fe,Argentina,SFN,SAAV,-31.7117,-60.8117,55,-3,N,America/Cordoba
147,2443,Ingeniero Ambrosio Taravella Airport,Cordoba,Argentina,COR,SACO,-31.323601,-64.208,1604,-3,N,America/Cordoba
148,7221,Zapala Airport,ZAPALA,Argentina,APZ,SAHZ,-38.975498,-70.113602,3330,-3,N,America/Argentina/Salta
149,2442,Jorge Newbery Airpark,Buenos Aires,Argentina,AEP,SABE,-34.5592,-58.4156,18,-3,N,America/Buenos_Aires
150,6030,Lago Argentino Airport,El Calafate,Argentina,ING,SAWA,-50.336102,-72.248596,732,-3,N,America/Argentina/Rio_Gallegos
151,11433,Tolwin Observatory Airport,Tolhuin,Argentina,\N,SAWL,-54.5219002,-67.1989975,90,-3,S,\N
152,6029,Antoine de Saint Exupéry Airport,San Antonio Oeste,Argentina,OES,SAVN,-40.7512,-65.0343,85,-3,N,America/Argentina/Salta
153,2440,Islas Malvinas Airport,Rosario,Argentina,ROS,SAAR,-32.9036,-60.785,85,-3,N,America/Cordoba
154,2439,General Urquiza Airport,Parana,Argentina,PRA,SAAP,-31.7948,-60.4804,242,-3,N,America/Cordoba
155,2467,Brigadier Mayor D Cesar Raul Ojeda Airport,San Luis,Argentina,LUQ,SAOU,-33.273201,-66.3563995,2328,-3,N,America/Argentina/San_Luis
156,2466,Villa Reynolds Airport,Villa Reynolds,Argentina,VME,SAOR,-33.7299004,-65.3873978,1591,-3,N,America/Argentina/San_Luis
157,2469,Resistencia International Airport,Resistencia,Argentina,RES,SARE,-27.45,-59.0561,173,-3,N,America/Cordoba
158,2468,Corrientes Airport,Corrientes,Argentina,CNQ,SARC,-27.4455,-58.7619,202,-3,N,America/Cordoba
159,2463,Villa Dolores Airport,Villa Dolores,Argentina,VDR,SAOD,-31.9452,-65.1463013,1847,-3,N,America/Cordoba
160,2462,Area De Material Airport,Rio Cuarto,Argentina,RCU,SAOC,-33.0850983,-64.2612991,1380,-3,N,America/Cordoba
161,2465,Marcos Juarez Airport,Marcos Juarez,Argentina,\N,SAOM,-32.6836,-62.157801,360,-3,N,America/Cordoba
162,2464,La Quiaca Airport,Laboulaye,Argentina,\N,SAOL,-22.1506004,-65.5774994,11414,-3,N,America/Jujuy
163,2474,Libertador Gral D Jose De San Martin Airport,Posadas,Argentina,PSS,SARP,-27.3858,-55.9707,430,-3,N,America/Cordoba
164,2473,Monte Caseros Airport,Monte Caseros,Argentina,MCS,SARM,-30.2719,-57.6402,170,-3,N,America/Cordoba
165,2476,Martin Miguel De Guemes International Airport,Salta,Argentina,SLA,SASA,-24.8560009,-65.4861984,4088,-3,N,America/Argentina/Salta
166,2475,Termal Airport,Presidencia R.s.pena,Argentina,PRQ,SARS,-26.753611,-60.492222,308,-3,N,America/Cordoba
167,2471,Cataratas Del Iguazú International Airport,Iguazu Falls,Argentina,IGR,SARI,-25.737301,-54.4734,916,-3,N,America/Cordoba
168,2470,Formosa Airport,Formosa,Argentina,FMA,SARF,-26.2127,-58.2281,193,-3,N,America/Cordoba
169,2472,Paso De Los Libres Airport,Paso De Los Libres,Argentina,AOL,SARL,-29.6894,-57.1521,230,-3,N,America/Cordoba
170,2452,El Plumerillo Airport,Mendoza,Argentina,MDZ,SAME,-32.8316994,-68.7929001,2310,-3,N,America/Mendoza
171,2451,Dr. Arturo H. Illia Airport,Fuerte Gral Roca,Argentina,GNR,SAHR,-39.0007019,-67.6204987,852,-3,N,America/Argentina/Salta
172,2454,Suboficial Ay Santiago Germano Airport,San Rafael,Argentina,AFA,SAMR,-34.588299,-68.4039,2470,-3,N,America/Mendoza
173,2453,Comodoro D.R. Salomón Airport,Malargue,Argentina,LGS,SAMM,-35.4935989,-69.5743027,4685,-3,N,America/Mendoza
174,2448,Moron Airport,Moron,Argentina,\N,SADM,-34.6763,-58.6428,95,-3,N,America/Buenos_Aires
175,2447,La Plata Airport,La Plata,Argentina,LPG,SADL,-34.9722,-57.8947,72,-3,N,America/Buenos_Aires
176,2450,Chos Malal Airport,Chosmadal,Argentina,HOS,SAHC,-37.4446983,-70.2225037,2788,-3,N,America/Argentina/Salta
177,2449,El Palomar Airport,El Palomar,Argentina,EPA,SADP,-34.6099,-58.6126,59,-3,N,America/Buenos_Aires
178,2459,Chilecito Airport,Chilecito,Argentina,\N,SANO,-29.2238998,-67.4389038,3099,-3,N,America/Argentina/La_Rioja
179,2458,Capitan V A Almonacid Airport,La Rioja,Argentina,IRJ,SANL,-29.3815994,-66.7957993,1437,-3,N,America/Argentina/La_Rioja
180,2461,Domingo Faustino Sarmiento Airport,San Juan,Argentina,UAQ,SANU,-31.571501,-68.418198,1958,-3,N,America/Argentina/San_Juan
181,2460,Teniente Benjamin Matienzo Airport,Tucuman,Argentina,TUC,SANT,-26.8409,-65.104897,1493,-3,N,America/Argentina/Tucuman
182,2456,Vicecomodoro Angel D. La Paz Aragonés Airport,Santiago Del Estero,Argentina,SDE,SANE,-27.7655563,-64.3099976,656,-3,N,America/Cordoba
183,2455,Catamarca Airport,Catamarca,Argentina,CTC,SANC,-28.5956001,-65.7517014,1522,-3,N,America/Catamarca
184,2457,Tinogasta Airport,Tinogasta,Argentina,\N,SANI,-28.0377998,-67.5802994,3968,-3,N,America/Catamarca
185,2486,El Bolson Airport,El Bolson,Argentina,EHL,SAVB,-41.9431992,-71.5323029,1141,-3,N,America/Argentina/Salta
186,2485,Curuzu Cuatia Airport,Curuzu Cuatia,Argentina,UZU,SATU,-29.7706,-57.9789,229,-3,N,America/Cordoba
187,2487,General E. Mosconi Airport,Comodoro Rivadavia,Argentina,CRD,SAVC,-45.7853,-67.4655,189,-3,N,America/Catamarca
188,2498,Capitan D Daniel Vazquez Airport,San Julian,Argentina,ULA,SAWJ,-49.3068,-67.8026,203,-3,N,America/Argentina/Rio_Gallegos
189,2497,Malvinas Argentinas Airport,Ushuaia,Argentina,USH,SAWH,-54.8433,-68.2958,102,-3,N,America/Argentina/Ushuaia
190,2488,Brigadier Antonio Parodi Airport,Esquel,Argentina,EQS,SAVE,-42.9080009,-71.1395035,2621,-3,N,America/Catamarca
191,2490,Almirante Marco Andres Zar Airport,Trelew,Argentina,REL,SAVT,-43.2105,-65.2703,141,-3,N,America/Catamarca
192,2477,Gobernador Horacio Guzman International Airport,Jujuy,Argentina,JUJ,SASJ,-24.392799,-65.097801,3019,-3,N,America/Jujuy
193,2478,Orán Airport,Oran,Argentina,ORA,SASO,-23.1527996,-64.3292007,1171,-3,N,America/Argentina/Salta
194,2492,El Tehuelche Airport,Puerto Madryn,Argentina,PMY,SAVY,-42.7592,-65.1027,427,-3,N,America/Catamarca
195,2483,Oberá Airport,Obera,Argentina,\N,SATO,-27.5181999,-55.1241989,1125,-3,N,America/Cordoba
196,2484,Reconquista Airport,Reconquista,Argentina,RCQ,SATR,-29.2103,-59.68,160,-3,N,America/Cordoba
197,2495,Hermes Quijada International Airport,Rio Grande,Argentina,RGA,SAWE,-53.7777,-67.7494,65,-3,N,America/Argentina/Ushuaia
198,2491,Gobernador Castello Airport,Viedma,Argentina,VDM,SAVV,-40.8692,-63.0004,20,-3,N,America/Argentina/Salta
199,2494,Puerto Deseado Airport,Puerto Deseado,Argentina,PUD,SAWD,-47.7353,-65.9041,268,-3,N,America/Argentina/Rio_Gallegos
200,2479,Laboulaye Airport,La Quiaca,Argentina,\N,SASQ,-34.1353989,-63.3623009,449,-3,N,America/Cordoba
201,2481,El Dorado Airport,El Dorado,Argentina,ELO,SATD,-26.3974991,-54.5746994,685,-3,N,America/Cordoba
202,2446,Mariano Moreno Airport,Jose C. Paz,Argentina,\N,SADJ,-34.5606,-58.7896,105,-3,N,America/Buenos_Aires
203,2482,Goya Airport,Goya,Argentina,OYA,SATG,-29.1058,-59.2189,128,-3,N,America/Cordoba
204,2496,Piloto Civil N. Fernández Airport,Rio Gallegos,Argentina,RGL,SAWG,-51.6089,-69.3126,61,-3,N,America/Argentina/Rio_Gallegos
205,11955,Dzhermuk Airport,Dzhermuk,Armenia,\N,UGEJ,39.8240013,45.6739998,0,\N,\N,\N
206,3964,Zvartnots International Airport,Yerevan,Armenia,EVN,UDYZ,40.1473007,44.3959007,2838,4,E,Asia/Yerevan
207,3965,Gyumri Shirak Airport,Gyumri,Armenia,LWN,UDSG,40.7504005,43.8592987,5000,4,E,Asia/Yerevan
208,3962,Erebuni Airport,Yerevan,Armenia,\N,UDYE,40.1221008,44.4650002,2948,4,E,Asia/Yerevan
209,3963,Stepanavan Airport,Stepanavan,Armenia,\N,UDLS,41.0485001,44.3372002,4836,4,E,Asia/Yerevan
210,2895,Queen Beatrix International Airport,Oranjestad,Aruba,AUA,TNCA,12.5014,-70.015198,60,-4,U,America/Aruba
211,6259,Coonamble Airport,Coonamble,Australia,CNB,YCNM,-30.9832993,148.376007,604,10,O,Australia/Sydney
212,6260,Coen Airport,Coen,Australia,CUQ,YCOE,-13.761133,143.113311,532,10,O,Australia/Brisbane
213,6254,Coconut Island Airport,Coconut Island,Australia,CNC,YCCT,-10.0500002,143.070007,3,10,O,Australia/Brisbane
214,6253,Coober Pedy Airport,Coober Pedy,Australia,CPD,YCBP,-29.0400009,134.720993,740,9.5,O,Australia/Adelaide
215,6255,Cloncurry Airport,Cloncurry,Australia,CNJ,YCCY,-20.6686001,140.503998,616,10,O,Australia/Brisbane
216,6325,St George Airport,St George,Australia,SGO,YSGE,-28.0496998,148.595001,656,10,O,Australia/Brisbane
217,6252,Cobar Airport,Cobar,Australia,CAZ,YCBA,-31.5382996,145.794006,724,10,O,Australia/Sydney
218,6257,Cooktown Airport,Cooktown,Australia,CTN,YCKN,-15.4447002,145.184006,26,10,O,Australia/Brisbane
219,6258,Cunnamulla Airport,Cunnamulla,Australia,CMA,YCMU,-28.0300007,145.621994,630,10,O,Australia/Brisbane
220,6256,Ceduna Airport,Ceduna,Australia,CED,YCDU,-32.1306,133.710007,77,9.5,O,Australia/Adelaide
221,3331,Weipa Airport,Weipa,Australia,WEI,YBWP,-12.6786003,141.925003,63,10,O,Australia/Brisbane
222,12037,Snake Bay Airport,,Australia,SNB,YSNB,-11.4228001,130.654007,173,\N,\N,\N
223,12036,Smithton Airport,,Australia,SIO,YSMI,-40.8349991,145.084,31,\N,\N,\N
224,12038,Stawell Airport,,Australia,SWC,YSWL,-37.071701,142.740997,807,\N,\N,\N
225,6270,Groote Eylandt Airport,Groote Eylandt,Australia,GTE,YGTE,-13.9750004,136.460007,53,9.5,O,Australia/Darwin
226,3332,Avalon Airport,Avalon,Australia,AVV,YMAV,-38.039398,144.468994,35,10,O,Australia/Hobart
227,12035,Port Pirie Airport,,Australia,PPI,YPIR,-33.2388992,137.994995,40,\N,\N,\N
228,6274,Mount Hotham Airport,Mount Hotham,Australia,MHU,YHOT,-37.0475006,147.334,4260,10,O,Australia/Hobart
229,6273,Hooker Creek Airport,Hooker Creek,Australia,HOK,YHOO,-18.3367004,130.638,320,9.5,O,Australia/Darwin
230,12039,Tibooburra Airport,,Australia,TYB,YTIB,-29.4510994,142.057999,584,\N,\N,\N
231,6271,Griffith Airport,Griffith,Australia,GFF,YGTH,-34.2508011,146.067001,439,10,O,Australia/Sydney
232,6272,Horn Island Airport,Horn Island,Australia,HID,YHID,-10.5864,142.289993,43,10,O,Australia/Brisbane
233,6264,Devonport Airport,Devonport,Australia,DPO,YDPO,-41.1697006,146.429993,33,10,O,Australia/Melbourne
234,6263,Darnley Island Airport,Darnley Island,Australia,NLF,YDNI,-9.58333015,143.766998,0,10,O,Australia/Brisbane
235,6265,Elcho Island Airport,Elcho Island,Australia,ELC,YELD,-12.0193996,135.570999,101,9.5,O,Australia/Darwin
236,6261,Cooma Snowy Mountains Airport,Cooma,Australia,OOM,YCOM,-36.3005981,148.973999,3088,10,O,Australia/Sydney
237,6262,Doomadgee Airport,Doomadgee,Australia,DMD,YDMG,-17.9403,138.822006,153,10,O,Australia/Brisbane
238,6269,Gladstone Airport,Gladstone,Australia,GLT,YGLA,-23.869699,151.223007,64,10,O,Australia/Brisbane
239,6268,Geraldton Airport,Geraldton,Australia,GET,YGEL,-28.796101,114.707001,121,8,O,Australia/Perth
240,12182,Mount Davies Airport,Pipalyatjara,Australia,\N,YMDV,-26.1667004,129.132996,0,9.5,O,\N
241,6266,Esperance Airport,Esperance,Australia,EPR,YESP,-33.684399,121.822998,470,8,O,Australia/Perth
242,6267,Flinders Island Airport,Flinders Island,Australia,FLS,YFLI,-40.0917015,147.992996,10,10,O,Australia/Melbourne
243,3322,Cairns International Airport,Cairns,Australia,CNS,YBCS,-16.8857994,145.755005,10,10,N,Australia/Brisbane
244,6327,Saibai Island Airport,Saibai Island,Australia,SBR,YSII,-9.37833023,142.625,15,10,O,Australia/Brisbane
245,3323,Charleville Airport,Charlieville,Australia,CTL,YBCV,-26.4132996,146.261993,1003,10,O,Australia/Brisbane
246,6328,Strahan Airport,Strahan,Australia,SRN,YSRN,-42.1549988,145.292007,20,10,O,Australia/Melbourne
247,6329,Thargomindah Airport,Thargomindah,Australia,XTG,YTGM,-27.9864006,143.811005,433,10,O,Australia/Brisbane
248,3321,Gold Coast Airport,Coolangatta,Australia,OOL,YBCG,-28.1644001,153.505005,21,10,N,Australia/Brisbane
249,12033,Ngukurr Airport,,Australia,RPM,YNGU,-14.7228003,134.746994,45,\N,\N,\N
250,3328,Proserpine Whitsunday Coast Airport,Prosserpine,Australia,PPP,YBPN,-20.4950008,148.552002,82,10,O,Australia/Brisbane
251,6326,Shark Bay Airport,Shark Bay,Australia,MJK,YSHK,-25.8938999,113.577003,111,8,O,Australia/Perth
252,3325,Sunshine Coast Airport,Maroochydore,Australia,MCY,YBMC,-26.6033,153.091003,15,10,O,Australia/Brisbane
253,3324,Mount Isa Airport,Mount Isa,Australia,ISA,YBMA,-20.6639004,139.488998,1121,10,O,Australia/Brisbane
254,3326,Mackay Airport,Mackay,Australia,MKY,YBMK,-21.1716995,149.179993,19,10,O,Australia/Brisbane
255,8265,Telfer Airport,Telfer,Australia,TEF,YTEF,-21.7150002,122.228996,970,8,N,Australia/Perth
256,12957,Nyrripi Airport,Nyirripi,Australia,\N,YNRR,-22.6452999,130.565002,0,9.5,N,\N
257,6332,Warraber Island Airport,Sue Islet,Australia,SYU,YWBS,-10.2082996,142.824997,3,10,O,Australia/Brisbane
258,12948,Kintore Airport,Kintore,Australia,\N,YKNT,-23.2649994,129.386993,0,9.5,N,\N
259,11038,Flinders Island Airport,Elliston,Australia,\N,YFLS,-33.730989,134.501,0,9.5,O,\N
260,12951,Utopia Airport,Utopia,Australia,\N,YUTP,-22.0550003,134.789993,0,9.5,N,\N
261,6331,Victoria River Downs Airport,Victoria River Downs,Australia,VCD,YVRD,-16.4021244,131.004974,89,9.5,O,Australia/Darwin
262,3320,Brisbane International Airport,Brisbane,Australia,BNE,YBBN,-27.3841991,153.117004,13,10,N,Australia/Brisbane
263,6330,Tennant Creek Airport,Tennant Creek,Australia,TCA,YTNK,-19.6343994,134.182999,1236,9.5,O,Australia/Darwin
264,3318,Northern Peninsula Airport,Amberley,Australia,ABM,YBAM,-10.9508,142.459,34,10,O,Australia/Brisbane
265,3317,Brisbane Archerfield Airport,Brisbane,Australia,ACF,YBAF,-27.5702991,153.007996,63,10,O,Australia/Brisbane
266,3319,Alice Springs Airport,Alice Springs,Australia,ASP,YBAS,-23.8066998,133.901993,1789,9.5,N,Australia/Darwin
267,4291,Ballina Byron Gateway Airport,Ballina Byron Bay,Australia,BNK,YBNA,-28.8339005,153.561996,7,10,O,Australia/Sydney
268,6245,Burketown Airport,Burketown,Australia,BUC,YBKT,-17.7486,139.533997,21,10,O,Australia/Brisbane
269,6246,Boigu Airport,Boigu,Australia,GIC,YBOI,-9.23278046,142.218002,23,10,O,Australia/Brisbane
270,3330,Townsville Airport,Townsville,Australia,TSV,YBTL,-19.2525005,146.764999,18,10,N,Australia/Brisbane
271,6243,Bedourie Airport,Bedourie,Australia,BEU,YBIE,-24.3460999,139.460007,300,10,O,Australia/Brisbane
272,6244,Bourke Airport,Bourke,Australia,BRK,YBKE,-30.0391998,145.951996,352,10,O,Australia/Sydney
273,6250,Blackwater Airport,Blackwater,Australia,BLT,YBTR,-23.6030998,148.807007,657,10,O,Australia/Brisbane
274,6249,Bathurst Airport,Bathurst,Australia,BHS,YBTH,-33.4094009,149.651993,2435,10,O,Australia/Sydney
275,6251,Carnarvon Airport,Carnarvon,Australia,CVQ,YCAR,-24.880211,113.67174,13,8,O,Australia/Perth
276,6247,Oakey Airport,Oakey,Australia,OKY,YBOK,-27.4113998,151.735001,1335,10,O,Australia/Brisbane
277,4289,Thangool Airport,Biloela,Australia,THG,YTNG,-24.4939003,150.576004,644,10,O,Australia/Brisbane
278,6248,Boulia Airport,Boulia,Australia,BQL,YBOU,-22.9132996,139.899994,542,10,O,Australia/Brisbane
279,6237,Aurukun Airport,Aurukun,Australia,AUU,YAUR,-13.354067,141.72065,31,10,O,Australia/Brisbane
280,6236,Argyle Airport,Argyle,Australia,GYL,YARG,-16.6369,128.451004,522,8,O,Australia/Perth
281,12034,Narromine Airport,,Australia,QRM,YNRM,-32.2146988,148.225006,782,\N,\N,\N
282,4319,Broome International Airport,Broome,Australia,BME,YBRM,-17.9447002,122.232002,56,8,O,Australia/Perth
283,4320,Newcastle Airport,Newcastle,Australia,NTL,YWLM,-32.7949982,151.834,31,10,O,Australia/Sydney
284,6235,Albany Airport,Albany,Australia,ALH,YABA,-34.9432983,117.808998,233,8,O,Australia/Perth
285,6241,Broken Hill Airport,Broken Hill,Australia,BHQ,YBHI,-32.0014,141.472,958,9.5,O,Australia/Adelaide
286,6240,Birdsville Airport,Birdsville,Australia,BVI,YBDV,-25.8974991,139.348007,159,10,O,Australia/Brisbane
287,6242,Hamilton Island Airport,Hamilton Island,Australia,HTI,YBHM,-20.3581009,148.951996,15,10,O,Australia/Brisbane
288,6238,Barcaldine Airport,Barcaldine,Australia,BCI,YBAR,-23.5653,145.307007,878,10,O,Australia/Brisbane
289,3329,Rockhampton Airport,Rockhampton,Australia,ROK,YBRK,-23.3819008,150.475006,34,10,O,Australia/Brisbane
290,6239,Badu Island Airport,Badu Island,Australia,BDD,YBAU,-10.1499996,142.1734,14,10,O,Australia/Brisbane
291,6302,Moruya Airport,Moruya,Australia,MYA,YMRY,-35.8978004,150.143997,14,10,O,Australia/Sydney
292,6301,Moranbah Airport,Moranbah,Australia,MOV,YMRB,-22.0578003,148.076996,770,10,O,Australia/Brisbane
293,6303,Mount Gambier Airport,Mount Gambier,Australia,MGB,YMTG,-37.7456017,140.785004,212,9.5,O,Australia/Adelaide
294,3346,Kalgoorlie Boulder Airport,Kalgoorlie,Australia,KGI,YPKG,-30.7894001,121.461998,1203,8,O,Australia/Perth
295,3345,Karratha Airport,Karratha,Australia,KTA,YPKA,-20.7122002,116.773003,29,8,O,Australia/Perth
296,3347,Kununurra Airport,Kununurra,Australia,KNX,YPKU,-15.7781,128.707993,145,8,O,Australia/Perth
297,6308,Narrabri Airport,Narrabri,Australia,NAA,YNBR,-30.3192005,149.826996,788,10,O,Australia/Sydney
298,6307,Narrandera Airport,Narrandera,Australia,NRA,YNAR,-34.7022018,146.511993,474,10,O,Australia/Sydney
299,6309,Normanton Airport,Normanton,Australia,NTN,YNTN,-17.68409,141.069664,73,10,O,Australia/Brisbane
300,6305,Murray Island Airport,Murray Island,Australia,MYI,YMUI,-9.91666985,144.054993,300,10,O,Australia/Brisbane
301,6304,Mornington Island Airport,Mornington Island,Australia,ONG,YMTI,-16.6625004,139.177994,33,10,O,Australia/Brisbane
302,6306,Maryborough Airport,Maryborough,Australia,MBH,YMYB,-25.5133,152.714996,38,10,O,Australia/Brisbane
303,6298,Mildura Airport,Mildura,Australia,MQL,YMIA,-34.2291985,142.085999,167,10,O,Australia/Hobart
304,6297,McArthur River Mine Airport,McArthur River Mine,Australia,MCV,YMHU,-16.4424992,136.084,131,9.5,O,Australia/Darwin
305,6299,Mount Magnet Airport,Mount Magnet,Australia,MMG,YMOG,-28.1161003,117.842003,1354,8,O,Australia/Perth
306,6295,Milingimbi Airport,Milingimbi,Australia,MGT,YMGB,-12.0944004,134.893997,53,9.5,O,Australia/Darwin
307,6294,Merimbula Airport,Merimbula,Australia,MIM,YMER,-36.9085999,149.901001,7,10,O,Australia/Sydney
308,6296,Maningrida Airport,Maningrida,Australia,MNG,YMGD,-12.0560999,134.233994,123,9.5,O,Australia/Darwin
309,13599,The Granites Airport,The Granites,Australia,\N,YTGT,-20.5482998,130.347,0,9.5,N,\N
310,3344,Perth Jandakot Airport,Perth,Australia,JAD,YPJT,-32.0974998,115.880997,99,8,O,Australia/Perth
311,13598,Croker Island Airport,Croker Island,Australia,CKI,YCKI,-11.165,132.483002,16,9.5,N,\N
312,6300,Moree Airport,Moree,Australia,MRZ,YMOR,-29.4988995,149.845001,701,10,O,Australia/Sydney
313,13600,Barimunya Airport,Barimunya,Australia,BYP,YBRY,-22.6739006,119.166,2082,8,N,\N
314,6324,Roma Airport,Roma,Australia,RMA,YROM,-26.5450001,148.774994,1032,10,O,Australia/Brisbane
315,6323,Ramingining Airport,Ramingining,Australia,RAM,YRNG,-12.3563995,134.897995,206,9.5,O,Australia/Darwin
316,3350,Adelaide Parafield Airport,Adelaide,Australia,\N,YPPF,-34.7933006,138.632996,57,9.5,O,Australia/Adelaide
317,6321,Portland Airport,Portland,Australia,PTJ,YPOD,-38.3181,141.470993,265,10,O,Australia/Hobart
318,6320,Port Macquarie Airport,Port Macquarie,Australia,PQQ,YPMQ,-31.4358006,152.863007,12,10,O,Australia/Sydney
319,6322,Quilpie Airport,Quilpie,Australia,ULP,YQLP,-26.6121998,144.253006,655,10,O,Australia/Brisbane
320,3356,Coffs Harbour Airport,Coff's Harbour,Australia,CFS,YSCH,-30.3206005,153.115997,18,10,O,Australia/Sydney
321,3354,Sydney Bankstown Airport,Sydney,Australia,BWU,YSBK,-33.9244003,150.988007,29,10,O,Australia/Sydney
322,3355,Canberra International Airport,Canberra,Australia,CBR,YSCB,-35.3069,149.195007,1886,10,O,Australia/Sydney
323,3351,Perth International Airport,Perth,Australia,PER,YPPH,-31.9403,115.967003,67,8,N,Australia/Perth
324,3352,Woomera Airfield,Woomera,Australia,UMR,YPWR,-31.1441994,136.817001,548,9.5,O,Australia/Adelaide
325,6314,Paraburdoo Airport,Paraburdoo,Australia,PBO,YPBO,-23.1711006,117.745003,1406,8,O,Australia/Perth
326,6313,Palm Island Airport,Palm Island,Australia,PMK,YPAM,-18.7553005,146.580994,28,10,O,Australia/Brisbane
327,6316,Gove Airport,Gove,Australia,GOV,YPGV,-12.2693996,136.817993,192,9.5,O,Australia/Darwin
328,6311,Olympic Dam Airport,Olympic Dam,Australia,OLP,YOLD,-30.4850006,136.876999,343,9.5,O,Australia/Adelaide
329,6310,Newman Airport,Newman,Australia,ZNE,YNWN,-23.4178009,119.803001,1724,8,O,Australia/Perth
330,6312,Port Augusta Airport,Argyle,Australia,PUG,YPAG,-32.5069008,137.716995,56,9.5,O,Australia/Adelaide
331,3348,Learmonth Airport,Learmonth,Australia,LEA,YPLM,-22.2355995,114.088997,19,8,O,Australia/Perth
332,6319,Pormpuraaw Airport,Pormpuraaw,Australia,EDR,YPMP,-14.896451,141.60908,10,10,O,Australia/Brisbane
333,3349,Port Hedland International Airport,Port Hedland,Australia,PHE,YPPD,-20.3778,118.625999,33,8,O,Australia/Perth
334,6317,Parkes Airport,Parkes,Australia,PKE,YPKS,-33.1314011,148.238998,1069,10,O,Australia/Sydney
335,6318,Port Lincoln Airport,Port Lincoln,Australia,PLO,YPLC,-34.6053009,135.880005,36,9.5,O,Australia/Adelaide
336,6281,Kowanyama Airport,Kowanyama,Australia,KWM,YKOW,-15.4856005,141.751007,35,10,O,Australia/Brisbane
337,4221,Hayman Island Heliport,Hayman Island,Australia,\N,YHYN,-20.0599,148.8834,8,10,O,Australia/Brisbane
338,6282,Kubin Airport,Kubin,Australia,KUG,YKUB,-10.2250004,142.218002,15,10,O,Australia/Brisbane
339,13752,Umuwa Airport,Umuwa,Australia,\N,YUMU,-26.4867001,132.039993,0,9.5,O,\N
340,6280,Karumba Airport,Karumba,Australia,KRB,YKMB,-17.4566994,140.830002,5,10,O,Australia/Brisbane
341,12042,Warracknabeal Airport,,Australia,WKB,YWKB,-36.3210983,142.419006,397,\N,\N,\N
342,4217,Blackall Airport,Blackall,Australia,BKQ,YBCK,-24.4277992,145.429001,928,10,O,Australia/Brisbane
343,12172,Hermannsburg Airport,Hermannsburg,Australia,HMG,YHMB,-23.9300003,132.804993,593,9.5,N,\N
344,6283,Leonora Airport,Leonora,Australia,LNO,YLEO,-28.8780994,121.315002,1217,8,O,Australia/Perth
345,3335,RAAF Base East Sale,East Sale,Australia,\N,YMES,-38.0988998,147.149002,23,10,O,Australia/Hobart
346,4218,Bundaberg Airport,Bundaberg,Australia,BDB,YBUD,-24.9039001,152.319,107,10,O,Australia/Brisbane
347,12041,Wangaratta Airport,,Australia,WGT,YWGT,-36.4157982,146.307007,504,\N,\N,\N
348,13792,Mount Weld Airport,Laverton,Australia,\N,YMNW,-28.7716999,122.440002,0,8,N,\N
349,3333,Albury Airport,Albury,Australia,ABX,YMAY,-36.0677986,146.957993,539,10,O,Australia/Sydney
350,6275,Hughenden Airport,Hughenden,Australia,HGD,YHUG,-20.8150005,144.225006,1043,10,O,Australia/Brisbane
351,12040,Tumut Airport,,Australia,TUM,YTMU,-35.2627983,148.240997,878,\N,\N,\N
352,13793,Kidston Airport,Kidston,Australia,\N,YKID,-18.8700008,144.173004,494,10,U,\N
353,3334,Melbourne Essendon Airport,Melbourne,Australia,MEB,YMEN,-37.7281,144.901993,282,10,O,Australia/Hobart
354,6278,King Island Airport,King Island,Australia,KNS,YKII,-39.8774986,143.878006,132,10,O,Australia/Melbourne
355,6279,Kalkgurung Airport,Kalkgurung,Australia,KFG,YKKG,-17.4319,130.807999,646,9.5,O,Australia/Darwin
356,6276,Julia Creek Airport,Julia Creek,Australia,JCK,YJLC,-20.6683006,141.723007,404,10,O,Australia/Brisbane
357,6277,Kalbarri Airport,Kalbarri,Australia,KAX,YKBR,-27.692813,114.259169,157,8,O,Australia/Perth
358,6288,Lightning Ridge Airport,Lightning Ridge,Australia,LHG,YLRD,-29.4566994,147.983994,540,10,O,Australia/Sydney
359,6287,Lismore Airport,Lismore,Australia,LSY,YLIS,-28.8302994,153.259995,35,10,O,Australia/Sydney
360,6289,Longreach Airport,Longreach,Australia,LRE,YLRE,-23.4342003,144.279999,627,10,O,Australia/Brisbane
361,6285,Lord Howe Island Airport,Lord Howe Island,Australia,LDH,YLHI,-31.5382996,159.076996,5,10.5,O,Australia/Lord_Howe
362,3341,Adelaide International Airport,Adelaide,Australia,ADL,YPAD,-34.945,138.531006,20,9.5,O,Australia/Adelaide
363,6286,Lockhart River Airport,Lockhart River,Australia,IRG,YLHR,-12.7869,143.304993,77,10,O,Australia/Brisbane
364,6293,Meekatharra Airport,Meekatharra,Australia,MKR,YMEK,-26.6117001,118.547997,1713,8,O,Australia/Perth
365,6292,Mabuiag Island Airport,Mabuiag Island,Australia,UBB,YMAA,-9.94999981,142.182999,0,10,O,Australia/Brisbane
366,3343,RAAF Base Edinburgh,Edinburgh,Australia,\N,YPED,-34.7024994,138.621002,67,9.5,O,Australia/Adelaide
367,6290,Leinster Airport,Leinster,Australia,LER,YLST,-27.8432999,120.703003,1631,8,O,Australia/Perth
368,6291,Laverton Airport,Laverton,Australia,LVO,YLTN,-28.6135998,122.424004,1530,8,O,Australia/Perth
369,3338,Melbourne Moorabbin Airport,Melbourne,Australia,MBW,YMMB,-37.9757996,145.102005,50,10,O,Australia/Hobart
370,3337,Launceston Airport,Launceston,Australia,LST,YMLT,-41.5452995,147.214005,562,10,O,Australia/Melbourne
371,3339,Melbourne International Airport,Melbourne,Australia,MEL,YMML,-37.673302,144.843002,434,10,O,Australia/Hobart
372,12043,Warren Airport,,Australia,QRR,YWRN,-31.7332993,147.802994,669,\N,\N,\N
373,3336,Hobart International Airport,Hobart,Australia,HBA,YMHB,-42.8361015,147.509995,13,10,O,Australia/Melbourne
374,13671,Noonkanbah Airport,Noonkanbah,Australia,NKB,YNKA,-18.4946995,124.851997,0,8,N,\N
375,6284,Lake Evella Airport,Lake Evella,Australia,LEL,YLEV,-12.4989004,135.806,256,9.5,O,Australia/Darwin
376,12045,West Wyalong Airport,West Wyalong,Australia,WWY,YWWL,-33.9371986,147.190994,859,\N,\N,\N
377,12046,Young Airport,,Australia,NGA,YYNG,-34.2556,148.248001,1267,\N,\N,\N
378,3340,"RAAF Williams, Point Cook Base",Point Cook,Australia,\N,YMPC,-37.932201,144.753006,14,10,O,Australia/Hobart
379,12044,West Sale Airport,Sale,Australia,SXE,YWSL,-38.090827,146.965335,72,\N,\N,\N
380,8998,Wilcannia Airport,Wilcannia,Australia,WIO,YWCA,-31.5263996,143.375,250,10,O,Australia/Sydney
381,9001,Ivanhoe Airport,Ivanhoe,Australia,\N,YIVO,-32.8833008,144.309998,330,10,O,Australia/Sydney
382,8996,Gayndah Airport,Gayndah,Australia,GAH,YGAY,-25.6144009,151.619003,369,10,N,Australia/Brisbane
383,9004,Pooncarie Airport,Pooncarie,Australia,\N,YPCE,-33.3666992,142.587997,50,10,O,Australia/Sydney
384,9006,Tilpa Airport,Tilpa,Australia,\N,YTLP,-30.9333,144.417007,0,10,O,Australia/Sydney
385,9002,Menindee Airport,Menindee,Australia,\N,YMED,-32.3666992,142.404999,0,10,O,Australia/Sydney
386,8980,Chinchilla Airport,Chinchilla,Australia,CCL,YCCA,-26.7749996,150.617004,1028,10,O,Australia/Brisbane
387,8984,Shute Harbour Airport,Shute Harbour,Australia,JHQ,YSHR,-20.277221,148.755556,12,10,O,Australia/Brisbane
388,12391,Elliott Airport,Elliott,Australia,\N,YELL,-17.5274296,133.529892,0,9.5,N,\N
389,8995,Temora Airport,Temora,Australia,TEM,YTEM,-34.4213982,147.511993,921,10,O,Australia/Sydney
390,8994,Shepparton Airport,Shepparton,Australia,SHT,YSHT,-36.4289017,145.393005,374,10,O,Australia/Hobart
391,7570,Walgett Airport,Walgett,Australia,WGE,YWLG,-30.0328007,148.126007,439,10,U,Australia/Sydney
392,7571,Bathurst Island Airport,Bathurst Island,Australia,BRT,YBTI,-11.7692003,130.619995,67,9.5,U,Australia/Darwin
393,9542,Coral Bay Airport,Coral Bay,Australia,\N,YCOY,-23.1299992,113.777,5,8,O,Australia/Perth
394,7573,Lizard Island Airport,Lizard Island,Australia,LZR,YLZI,-14.673273,145.454571,70,10,O,Australia/Brisbane
395,7574,Hamilton Airport,Hamilton,Australia,HLT,YHML,-37.6488991,142.065002,803,10,O,Australia/Hobart
396,7572,Dunk Island Airport,Dunk Island,Australia,DKI,YDKI,-17.9417,146.139999,6,10,U,Australia/Brisbane
397,9068,Brampton Island Airport,Brampton Island,Australia,BMP,YBPI,-20.8033009,149.270004,11,10,O,Australia/Brisbane
398,12392,Papunya Airport,Papunya,Australia,\N,YPAY,-23.2467003,131.903,620,9.5,N,\N
399,9065,Lake Macquarie Airport,Lake Macquarie,Australia,BEO,YPEC,-33.0667,151.647995,2,10,O,Australia/Sydney
400,12444,Fregon Airport,Fregon,Australia,\N,YFRG,-26.7749996,132.016998,528,9.5,O,\N
401,9090,Busselton Regional Airport,Brusselton,Australia,BQB,YBLN,-33.6884232,115.401596,55,8,O,Australia/Perth
402,6808,Mudgee Airport,Mudgee,Australia,DGE,YMDG,-32.5625,149.610992,1545,10,O,Australia/Sydney
403,8848,Theodore Airport,Theodore,Australia,TDR,YTDR,-24.9932995,150.093002,171,10,N,Australia/Brisbane
404,8847,Onslow Airport,Onslow,Australia,ONS,YOLW,-21.6683006,115.112999,7,8,O,Australia/Perth
405,3362,Tamworth Airport,Tamworth,Australia,TMW,YSTW,-31.0839005,150.847,1334,10,O,Australia/Sydney
406,6829,Oceanside Municipal Airport,Fraser Island,Australia,OCN,KOKB,33.2173004,-117.353996,28,-8,O,America/Los_Angeles
407,6809,Maitland Airport,Maitland,Australia,MTL,YMND,-32.701265,151.492912,85,10,O,Australia/Sydney
408,8822,Mount Garnet Airport,Mount Garnet,Australia,\N,YMRT,-17.7000008,145.149994,657,10,U,Australia/Brisbane
409,8823,Innisfail Airport,Innisfail,Australia,IFL,YIFL,-17.5594006,146.011993,46,10,U,Australia/Brisbane
410,6807,Scone Airport,Scone,Australia,NSO,YSCO,-32.0372009,150.832001,745,10,O,Australia/Sydney
411,8831,Moomba Airport,Moomba,Australia,MOO,YOOM,-28.0993996,140.197006,143,9.5,O,Australia/Adelaide
412,3363,Wagga Wagga City Airport,Wagga Wagga,Australia,WGA,YSWG,-35.1652985,147.466003,724,10,O,Australia/Sydney
413,7569,Derby Airport,Derby,Australia,DRB,YDBY,-17.3700008,123.661003,24,8,U,Australia/Perth
414,6899,Nowra Airport,Nowra,Australia,NOA,YSNW,-34.9488983,150.537003,400,10,O,Australia/Sydney
415,7566,Barrow Island Airport,Barrow Island,Australia,BWB,YBWX,-20.8644009,115.405998,26,8,U,Australia/Perth
416,6915,Bendigo Airport,Bendigo,Australia,BXG,YBDG,-36.739399,144.330002,705,10,U,Australia/Hobart
417,6914,RAAF Base Pearce,Perth,Australia,\N,YPEA,-31.6678009,116.014999,149,8,O,Australia/Perth
418,6870,Whitsunday Island Airport,Airlie Beach,Australia,WSY,YWHI,-20.27611,148.755,40,10,O,Australia/Brisbane
419,6896,RAAF Base Amberley,Amberley,Australia,\N,YAMB,-27.6406,152.712006,91,10,O,Australia/Brisbane
420,6860,Bungle Bungle Airport,Bungle Bungle,Australia,\N,YBUU,-17.5452995,128.307007,0,8,U,Australia/Perth
421,6898,"RAAF Williams, Laverton Base",Laverton,Australia,\N,YLVT,-37.8636017,144.746002,18,10,O,Australia/Hobart
422,6897,Tindal Airport,Katherine,Australia,KTR,YPTN,-14.5211,132.378006,443,9.5,O,Australia/Darwin
423,9193,Coonabarabran Airport,Coonabarabran,Australia,COJ,YCBB,-31.3325005,149.266998,2117,10,O,Australia/Sydney
424,9207,Warnervale Airport,Warnervale Airport,Australia,\N,YWVA,-33.240278,151.429722,25,10,U,Australia/Sydney
425,9146,Solomon Airport,Solomon,Australia,SLJ,YSOL,-22.2554,117.7627,2030,8,N,Australia/Perth
426,3358,Dubbo City Regional Airport,Dubbo,Australia,DBO,YSDU,-32.2167015,148.574997,935,10,O,Australia/Sydney
427,12618,Goondiwindi Airport,Goondiwindi,Australia,GOO,YGDI,-28.5214005,150.320007,714,10,O,\N
428,12445,Mount Liebig Airport,Mt Liebig,Australia,\N,YLBG,-23.2432995,131.259995,0,9.5,N,\N
429,9095,Inverell Airport,Inverell,Australia,IVR,YIVL,-29.8882999,151.143997,2667,10,O,Australia/Sydney
430,9096,Glen Innes Airport,Glen Innes,Australia,GLI,YGLI,-29.6749992,151.688995,3433,10,O,Australia/Sydney
431,7913,Jabiru Airport,Jabiru,Australia,JAB,YJAB,-12.6583004,132.893005,85,9.5,U,Australia/Darwin
432,9127,Fortescue - Dave Forrest Aerodrome,Cloudbreak,Australia,KFE,YFDF,-22.290754,119.437143,1555,8,N,Australia/Perth
433,9533,Cowra Airport,Chatsworth,Australia,CWT,YCWR,-33.8446999,148.649002,966,10,A,Australia/Sydney
434,9532,Prominent Hill Airport,Prominent Hill,Australia,PXH,YPMH,-29.716,135.5244,745,9.5,O,Australia/Adelaide
435,9402,Bairnsdale Airport,Bairnsdale,Australia,BSJ,YBNS,-37.8875008,147.567993,165,10,O,Australia/Hobart
436,7130,Gatton Campus Airport,Gatton,Australia,\N,YGAT,-27.5604061,152.34046,0,10,N,Australia/Brisbane
437,3361,Sydney Kingsford Smith International Airport,Sydney,Australia,SYD,YSSY,-33.9460983,151.177002,21,10,O,Australia/Sydney
438,12918,Ti Tree Airport,Ti Tree,Australia,\N,YTIT,-22.1317005,133.419998,0,9.5,N,\N
439,3360,RAAF Base Richmond,Richmond,Australia,XRH,YSRI,-33.600601,150.781006,67,10,O,Australia/Sydney
440,12844,Docker River Airport,Docker River,Australia,DKV,YDVR,-24.8600006,129.070007,589,9.5,N,\N
441,13227,Boolgeeda,Brockman,Australia,OCM,YBGD,-22.54,117.275,1871,8,O,\N
442,7129,Ballera Airport,Ballera,Australia,BBL,YLLE,-27.405633,141.809458,385,10,N,Australia/Brisbane
443,7128,Toowoomba Airport,Toowoomba,Australia,TWB,YTWB,-27.542801,151.916,2086,10,N,Australia/Brisbane
444,12979,Erldunda Airport,Erldunda,Australia,EDD,YERL,-25.2057991,133.253998,0,9.5,N,\N
445,13306,Coonawarra Airport,Coonawarra,Australia,\N,YCNQ,-37.2832985,140.800003,0,9.5,O,\N
446,13307,Naracoorte Airport,Naracoorte,Australia,NAC,YNRC,-36.9852982,140.725006,169,9.5,O,\N
447,11273,Horsham Airport,Horsham,Australia,HSM,YHSM,-36.6697006,142.173004,445,10,O,\N
448,11272,Murray Bridge Airport,Murray Bridge,Australia,\N,YMBD,-35.0667,139.227005,55,10,O,\N
449,11274,Swan Hill Airport,Swan Hill,Australia,SWH,YSWH,-35.3758011,143.533005,234,10,O,\N
450,11717,Taroom Airport,Taroom,Australia,XTO,YTAM,-25.8017006,149.899994,240,10,N,\N
451,11673,William Creek Airport,William Creek,Australia,\N,YWMC,-28.9067001,136.341995,91,9.5,U,\N
452,13335,Caloundra Airport,Caloundra,Australia,CUD,YCDR,-26.7999992,153.100006,12,10,N,\N
453,7575,Halls Creek Airport,Halls Creek,Australia,HCQ,YHLC,-18.2339001,127.669998,1346,8,U,Australia/Perth
454,11658,Dulkaninna Airport,Dulkaninna,Australia,DLK,YDLK,-29.0132999,138.481003,0,9.5,U,\N
455,13210,Bowen Airport,Bowen,Australia,ZBO,YBWN,-20.0182991,148.214996,8,10,N,\N
456,7811,Redcliffe Airport,Rothwell,Australia,\N,YRED,-27.2066994,153.067993,2,10,U,Australia/Brisbane
457,7782,Penneshaw Airport,Penneshaw,Australia,PEA,YPSH,-35.7558463,137.962875,0,9.5,O,Australia/Adelaide
458,7912,Cooinda Airport,Cooinda,Australia,CDA,YCOO,-12.9033003,132.531998,13,9.5,U,Australia/Darwin
459,7879,Phillip Island Airport,Phillip Island,Australia,\N,YPID,-38.5233002,145.326996,13,10,O,Australia/Hobart
460,7577,Ravensthorpe Airport,Ravensthorpe,Australia,RVT,YNRV,-33.7971992,120.208,197,8,U,Australia/Perth
461,12984,Finke Airport,Finke,Australia,FIK,YFNE,-25.5946999,134.582993,0,9.5,N,\N
462,7576,Fitzroy Crossing Airport,Fitzroy Crossing,Australia,FIZ,YFTZ,-18.1819,125.558998,368,8,U,Australia/Perth
463,7704,Geelong Airport,Geelong,Australia,GEX,YGLG,-38.2249985,144.332993,43,10,O,Australia/Hobart
464,13004,Nypari Airport,Angatja Homeland,Australia,\N,YNYP,-26.2000008,130.233002,0,9.5,O,\N
465,12024,Forbes Airport,Forbes,Australia,FRB,YFBS,-33.363602,147.934998,760,\N,\N,\N
466,12023,Echuca Airport,,Australia,ECH,YECH,-36.1571999,144.761993,323,\N,\N,\N
467,12025,Gunnedah Airport,,Australia,GUH,YGDH,-30.9610996,150.251007,863,\N,\N,\N
468,12021,Deniliquin Airport,Deniliquin,Australia,DNQ,YDLQ,-35.5593987,144.945999,316,\N,\N,\N
469,12020,Dirranbandi Airport,,Australia,DRN,YDBI,-28.5916996,148.216995,567,\N,\N,\N
470,12022,Dysart Airport,,Australia,DYA,YDYS,-22.6222,148.363998,670,\N,\N,\N
471,12029,Kempsey Airport,,Australia,KPS,YKMP,-31.0743999,152.770004,54,\N,\N,\N
472,12028,Kerang Airport,,Australia,KRA,YKER,-35.7514,143.938995,254,\N,\N,\N
473,12030,Kingaroy Airport,,Australia,KGY,YKRY,-26.5807991,151.841003,1492,\N,\N,\N
474,12026,Hay Airport,,Australia,HXX,YHAY,-34.5313988,144.830002,305,\N,\N,\N
475,12027,Hopetoun Airport,,Australia,HTU,YHPN,-35.7153015,142.360001,256,\N,\N,\N
476,12013,Benalla Airport,,Australia,BLN,YBLA,-36.551899,146.007004,569,\N,\N,\N
477,8380,Mallacoota Airport,Mallacoota,Australia,XMC,YMCO,-37.5983009,149.720001,31,10,U,Australia/Hobart
478,12014,Balranald Airport,,Australia,BZD,YBRN,-34.6236,143.578003,210,\N,\N,\N
479,8406,Yarram Airport,Yarram,Australia,\N,YYRM,-38.5667,146.755005,15,10,O,Australia/Hobart
480,6333,Windorah Airport,Windorah,Australia,WNR,YWDH,-25.4130993,142.667007,452,10,O,Australia/Brisbane
481,8395,Yuendumu Airport,Yuendumu,Australia,YUE,YYND,-22.2542,131.781998,2205,9.5,O,Australia/Darwin
482,12018,Corryong Airport,,Australia,CYG,YCRG,-36.1828003,147.888,963,\N,\N,\N
483,12017,Corowa Airport,,Australia,CWW,YCOR,-35.9947014,146.356995,469,\N,\N,\N
484,12019,Cootamundra Airport,,Australia,CMD,YCTM,-34.6239014,148.028,1110,\N,\N,\N
485,12015,Brewarrina Airport,,Australia,BWQ,YBRW,-29.9738998,146.817001,414,\N,\N,\N
486,12016,Cleve Airport,,Australia,CVC,YCEE,-33.7097015,136.505005,589,\N,\N,\N
487,10116,Bunbury Airport,Bunbury,Australia,BUY,YBUN,-33.3782997,115.677002,53,8,U,\N
488,12958,Amata Airport,Amata,Australia,AMT,YAMT,-26.1082993,131.207001,695,9.5,O,\N
489,10140,Atherton Airport,Atherton,Australia,\N,YATN,-17.2616997,145.514999,2450,10,O,\N
490,9904,Richmond Airport,Richmond,Australia,RCM,YRMD,-20.7019005,143.115005,676,10,N,\N
491,9902,Warrnambool Airport,Warrnambool,Australia,WMB,YWBL,-38.2952995,142.447006,242,10,O,\N
492,9905,RAAF Base Curtin,Derby,Australia,DCN,YCIN,-17.5813999,123.828003,300,8,N,\N
493,11030,Port Keats Airport,Wadeye,Australia,PKT,YPKT,-14.25,129.529007,91,9.5,O,\N
494,10618,Borroloola Airport,Borroloola,Australia,BOX,YBRL,-16.0753002,136.302002,55,9.5,O,\N
495,11031,Garden Point Airport,Pirlangimpi,Australia,GPN,YGPT,-11.4025002,130.421997,90,9.5,O,\N
496,10370,Kadina Airport,Kadina,Australia,\N,YKDI,-33.9766998,137.660004,42,9.5,O,\N
497,10378,Coondewanna Airport,Coondewanna,Australia,CJF,YCWA,-22.9666996,118.813004,2300,8,N,\N
498,8351,Cunderdin Airport,Cunderdin,Australia,\N,YCUN,-31.6222,117.217003,705,8,O,Australia/Perth
499,8352,Rottnest Island Airport,Rottnest Island,Australia,RTS,YRTI,-32.006699,115.540001,12,8,O,Australia/Perth
500,8350,Warburton Airport,Warburton Community,Australia,\N,YWBR,-26.1282997,126.583,1500,8,O,Australia/Perth
501,8354,Ballarat Airport,Ballarat,Australia,\N,YBLT,-37.5116997,143.791,1433,10,O,Australia/Hobart
502,8353,Forrest Airport,Forrest,Australia,FOS,YFRT,-30.8381004,128.115005,511,8,O,Australia/Perth
503,12032,Mareeba Airport,,Australia,MRG,YMBA,-17.0692005,145.419006,1560,\N,\N,\N
504,12031,Latrobe Valley Airport,Morwell,Australia,TGN,YLTV,-38.207199,146.470001,180,\N,\N,\N
505,9901,Clermont Airport,Clermont,Australia,CMQ,YCMT,-22.7730999,147.621002,908,10,N,\N
506,8349,Leigh Creek Airport,Leigh Creek,Australia,LGH,YLEC,-30.5983009,138.425995,856,9.5,O,Australia/Adelaide
507,8348,Renmark Airport,Renmark,Australia,RMK,YREN,-34.1963997,140.673996,115,9.5,O,Australia/Adelaide
508,12218,Everard Park Airport,Mimili,Australia,\N,YEVP,-27.0167007,132.716995,0,9.5,O,\N
509,12219,Warrabri Airport,Ali-Curung,Australia,\N,YWBI,-21,134.397003,383,9.5,N,\N
510,9818,Lilydale Airport,Lilydale,Australia,\N,YLIL,-37.6917,145.367004,76,10,O,Australia/Hobart
511,12340,Ampilatwatja Airport,Ampilatwatja,Australia,\N,YAMJ,-21.6550007,135.229996,0,9.5,N,\N
512,3357,Camden Airport,Camden,Australia,CDU,YSCN,-34.0402985,150.686996,230,10,O,Australia/Sydney
513,9853,Toowoomba Wellcamp Airport,Toowoomba,Australia,WTB,YBWW,-27.558332,151.793335,1509,10,N,Australia/Brisbane
514,6419,Mount Keith Airport,Mount Keith,Australia,WME,YMNE,-27.2863998,120.555,1792,8,O,Australia/Perth
515,3990,Emerald Airport,Emerald,Australia,EMD,YEML,-23.5674992,148.179001,624,10,O,Australia/Brisbane
516,12217,Mount Allan Airport,Yuelamu,Australia,\N,YMNA,-22.2749996,132.216995,0,9.5,N,\N
517,12183,Areyonga Airport,Areyonga,Australia,\N,YARN,-24.0667,132.266998,0,9.5,N,\N
518,13891,Mangalore Airport,Mangalore,Australia,\N,YMNG,-36.8883018,145.184006,467,10,O,\N
519,8820,Great Keppel Is Airport,Great Keppel Island,Australia,GKL,YGKL,-23.1833,150.942001,21,10,U,Australia/Brisbane
520,6805,Goulburn Airport,Goulburn,Australia,GUL,YGLB,-34.8102989,149.725998,2141,10,O,Australia/Sydney
521,8821,Roper Bar Airport,Roper Bar,Australia,RPB,YRRB,-14.734814,134.525485,92,9.5,U,Australia/Darwin
522,6806,Cessnock Airport,Cessnock,Australia,CES,YCNK,-32.787498,151.341995,210,10,O,Australia/Sydney
523,12361,Harts Range Airport,Harts Range,Australia,\N,YHTS,-22.9850006,134.917999,0,9.5,N,\N
524,6792,Grafton Airport,Grafton,Australia,GFN,YGFN,-29.7593994,153.029999,110,10,U,Australia/Sydney
525,12360,Kings Creek Airport,Petermann,Australia,KCS,YKCS,-24.4232998,131.835007,615,9.5,N,\N
526,6794,Taree Airport,Taree,Australia,TRO,YTRE,-31.8885994,152.514008,38,10,U,Australia/Sydney
527,6793,Orange Airport,Orange,Australia,OAG,YORG,-33.3816986,149.132996,3115,10,U,Australia/Sydney
528,6340,Yam Island Airport,Yam Island,Australia,XMY,YYMI,-9.9011097,142.776001,0,10,O,Australia/Brisbane
529,4062,Armidale Airport,Armidale,Australia,ARM,YARM,-30.5280991,151.617004,3556,10,O,Australia/Sydney
530,6339,Yorke Island Airport,Yorke Island,Australia,OKR,YYKI,-9.752801,143.405673,10,10,O,Australia/Brisbane
531,8472,Yalata Mission Airport,Yalata,Australia,KYI,YYTA,-31.4706001,131.824997,0,9.5,O,Australia/Adelaide
532,8476,Wyndham Airport,Wyndham,Australia,WYN,YWYM,-15.5114002,128.153,14,8,U,Australia/Perth
533,4052,Hervey Bay Airport,Hervey Bay,Australia,HVB,YHBA,-25.3188992,152.880005,60,10,O,Australia/Brisbane
534,6335,Wiluna Airport,Wiluna,Australia,WUN,YWLU,-26.6292,120.221001,1649,8,O,Australia/Perth
535,6336,Wollongong Airport,Wollongong,Australia,WOL,YWOL,-34.5611,150.789001,31,10,O,Australia/Sydney
536,6334,Whyalla Airport,Whyalla,Australia,WYA,YWHA,-33.0588989,137.514008,41,9.5,O,Australia/Adelaide
537,6338,Wynyard Airport,Burnie,Australia,BWT,YWYY,-40.9989014,145.731003,62,10,O,Australia/Melbourne
538,6337,Winton Airport,Winton,Australia,WIN,YWTN,-22.3635998,143.085999,638,10,O,Australia/Brisbane
539,12011,Alpha Airport,Alpha,Australia,ABH,YAPH,-23.646099,146.584,1255,\N,\N,\N
540,8696,Beverley Airport,Mine Site,Australia,\N,YBEE,-30.1867008,139.557999,116,9.5,O,Australia/Adelaide
541,12012,Ararat Airport,,Australia,ARY,YARA,-37.3093987,142.988998,1008,\N,\N,\N
542,4051,Kingscote Airport,Kingscote,Australia,KGC,YKSC,-35.7139015,137.520996,24,9.5,O,Australia/Adelaide
543,3999,Darwin International Airport,Darwin,Australia,DRW,YPDN,-12.4146996,130.876999,103,9.5,N,Australia/Darwin
544,4010,Ayers Rock Connellan Airport,Uluru,Australia,AYQ,YAYE,-25.1861,130.975998,1626,9.5,N,Australia/Darwin
545,7714,Brumowski Air Base,Tulln,Austria,\N,LOXT,48.3167,16.116699,574,1,U,Europe/Vienna
546,13066,Stockerau Airport,Stockerau,Austria,\N,LOAU,48.4099998,16.1917,686,1,E,\N
547,6520,Vöslau Airport,Bad Voeslau,Austria,\N,LOAV,47.9650002,16.2600002,765,1,E,Europe/Vienna
548,6519,Niederoeblarn Airport,Niederoeblarn,Austria,\N,LOGO,47.478298,14.0083,2142,1,E,Europe/Vienna
549,6894,Zell Am See Airport,Zell am See,Austria,\N,LOWZ,47.292222,12.7875,2470,1,E,Europe/Vienna
550,6799,Krems Airport,Krems,Austria,\N,LOAG,48.446389,15.634167,1017,1,E,Europe/Vienna
551,6797,Hohenems-Dornbirn Airport,Hohenems,Austria,HOH,LOIH,47.3849983,9.69999981,1352,1,E,Europe/Vienna
552,1609,Graz Airport,Graz,Austria,GRZ,LOWG,46.9911003,15.4396,1115,1,E,Europe/Vienna
553,1608,Wels Airport,Wels,Austria,\N,LOLW,48.1833,14.0409002,1043,1,E,Europe/Vienna
554,1610,Innsbruck Airport,Innsbruck,Austria,INN,LOWI,47.260201,11.344,1907,1,E,Europe/Vienna
555,8618,Mauterndorf Airport,Mauterndorf,Austria,\N,LOSM,47.1324997,13.6969004,3642,1,E,Europe/Vienna
556,8467,Flugplatz Punitz,Punitz-Guessing,Austria,\N,LOGG,47.14653,16.316843,950,1,E,Europe/Vienna
557,8619,Nötsch Im Gailtal Airport,Notsch Im Gailtal,Austria,\N,LOKN,46.5811005,13.6292,1801,1,E,Europe/Vienna
558,1613,Vienna International Airport,Vienna,Austria,VIE,LOWW,48.1102982,16.5697002,600,1,E,Europe/Vienna
559,1612,Salzburg Airport,Salzburg,Austria,SZG,LOWS,47.7933006,13.0043001,1411,1,E,Europe/Vienna
560,1615,Hinterstoisser Air Base,Zeltweg,Austria,\N,LOXZ,47.202801,14.7442,2264,1,E,Europe/Vienna
561,1611,Linz Hörsching Airport,Linz,Austria,LNZ,LOWL,48.2332,14.1875,980,1,E,Europe/Vienna
562,9076,St. Johann In Tirol Airport,St. Johann in Tirol,Austria,\N,LOIJ,47.5201,12.4497,2198,1,E,Europe/Vienna
563,1607,Wiener Neustadt East Airport,Wiener Neustadt Ost,Austria,\N,LOAN,47.8432999,16.2600994,896,1,E,Europe/Vienna
564,4322,Klagenfurt Airport,Klagenfurt,Austria,KLU,LOWK,46.642502,14.3377,1472,1,E,Europe/Vienna
565,7510,Stepanakert Air Base,Stepanakert,Azerbaijan,\N,UB13,39.9014015,46.7869987,2001,4,E,Asia/Baku
566,2922,Heydar Aliyev International Airport,Baku,Azerbaijan,GYD,UBBB,40.4674988,50.0466995,10,4,E,Asia/Baku
567,6090,Nakhchivan Airport,Nakhchivan,Azerbaijan,NAJ,UBBN,39.1888008,45.4584007,2863,4,E,Asia/Baku
568,6089,Ganja Airport,Ganja,Azerbaijan,KVD,UBBG,40.7377014,46.3176003,1083,4,E,Asia/Baku
569,8776,Zaqatala International Airport,Zaqatala,Azerbaijan,ZTU,UBBY,41.562222,46.667221,1279,4,E,Asia/Baku
570,14087,Zabrat Airport,Baku,Azerbaijan,ZXT,UBTT,40.4955422,49.9768066,36,\N,\N,\N
571,8775,Gabala International Airport,Qabala,Azerbaijan,GBB,UBBQ,40.826667,47.7125,935,4,E,Asia/Baku
572,8774,Lankaran International Airport,Lankaran,Azerbaijan,LLK,UBBL,38.7463989,48.8180008,30,4,U,Asia/Baku
573,1933,Sandy Point Airport,Sandy Point,Bahamas,\N,MYAS,26.0046005,-77.3955002,8,-5,U,America/Nassau
574,1931,San Andros Airport,San Andros,Bahamas,SAQ,MYAN,25.0538006,-78.0490036,5,-5,U,America/Nassau
575,1932,Spring Point Airport,Spring Point,Bahamas,AXP,MYAP,22.4417992,-73.9709015,11,-5,U,America/Nassau
576,1935,Chub Cay Airport,Chub Cay,Bahamas,CCZ,MYBC,25.4171009,-77.8808975,5,-5,U,America/Nassau
577,1936,Great Harbour Cay Airport,Bullocks Harbour,Bahamas,GHC,MYBG,25.7383,-77.840103,18,-5,U,America/Nassau
578,1934,Treasure Cay Airport,Treasure Cay,Bahamas,TCB,MYAT,26.7453003,-77.3912964,8,-5,U,America/Nassau
579,13721,Hard Bargain Airport,,Bahamas,\N,MYLR,23.011194,-74.905889,0,\N,\N,\N
580,5856,Congo Town Airport,Andros,Bahamas,COX,MYAK,24.158701,-77.589798,15,-5,U,America/Nassau
581,5857,Arthur's Town Airport,Arthur's Town,Bahamas,ATC,MYCA,24.6294,-75.673797,18,-5,U,America/Nassau
582,1928,Andros Town Airport,Andros Town,Bahamas,ASD,MYAF,24.6979008,-77.7956009,5,-5,U,America/Nassau
583,1930,Leonard M Thompson International Airport,Marsh Harbor,Bahamas,MHH,MYAM,26.5114,-77.083503,6,-5,U,America/Nassau
584,1927,Clarence A. Bain Airport,Clarence Bain,Bahamas,MAY,MYAB,24.2877007,-77.6846008,19,-5,U,America/Nassau
585,1947,Staniel Cay Airport,Staniel Cay,Bahamas,TYM,MYES,24.1690998,-76.4391022,5,-5,U,America/Nassau
586,1948,Grand Bahama International Airport,Freeport,Bahamas,FPO,MYGF,26.5587006,-78.6956024,7,-5,U,America/Nassau
587,1946,Rock Sound Airport,Rock Sound,Bahamas,RSD,MYER,24.8950787,-76.1768818,10,-5,U,America/Nassau
588,1950,Deadman's Cay Airport,Dead Man's Cay,Bahamas,LGI,MYLD,23.1790009,-75.0935974,9,-5,U,America/Nassau
589,1949,Inagua Airport,Matthew Town,Bahamas,IGA,MYIG,20.9750004,-73.6669006,8,-5,U,America/Nassau
590,1942,George Town Airport,George Town,Bahamas,\N,MYEG,23.4666996,-75.7817001,5,-5,U,America/Nassau
591,1943,North Eleuthera Airport,North Eleuthera,Bahamas,ELH,MYEH,25.4748993,-76.6835022,13,-5,U,America/Nassau
592,1941,Exuma International Airport,Great Exuma,Bahamas,GGT,MYEF,23.5625992,-75.8779984,9,-5,U,America/Nassau
593,1945,Normans Cay Airport,Norman's Cay,Bahamas,NMC,MYEN,24.5942993,-76.8201981,8,-5,U,America/Nassau
594,1944,Governor's Harbour Airport,Governor's Harbor,Bahamas,GHB,MYEM,25.2847004,-76.3310013,26,-5,U,America/Nassau
595,1956,San Salvador Airport,Cockburn Town,Bahamas,ZSA,MYSM,24.0632992,-74.5240021,24,-5,U,America/Nassau
596,9760,Black Point Airstrip,Black Point,Bahamas,\N,MYEB,24.0894884,-76.3979173,10,-5,A,America/Nassau
597,1955,Rum Cay Airport,Port Nelson,Bahamas,RCY,MYRP,23.6844006,-74.8361969,15,-5,U,America/Nassau
598,1937,South Bimini Airport,Alice Town,Bahamas,BIM,MYBS,25.6998997,-79.2647018,10,-5,U,America/Nassau
599,9759,Abaco I Walker C Airport,Walker's Cay,Bahamas,WKR,MYAW,27.2667007,-78.3996964,10,-5,A,\N
600,1952,Mayaguana Airport,Mayaguana,Bahamas,MYG,MYMM,22.379499,-73.013494,11,-5,U,America/Nassau
601,1951,Stella Maris Airport,Stella Maris,Bahamas,SML,MYLS,23.582317,-75.268621,10,-5,U,America/Nassau
602,1954,Duncan Town Airport,Duncan Town,Bahamas,DCT,MYRD,22.1818008,-75.7294998,6,-5,U,America/Nassau
603,1953,Lynden Pindling International Airport,Nassau,Bahamas,NAS,MYNN,25.0389996,-77.4662018,16,-5,U,America/Nassau
604,5859,Colonel Hill Airport,Colonel Hill,Bahamas,CRI,MYCI,22.7455997,-74.1824036,5,-5,U,America/Nassau
605,5860,Nassau Paradise Island Airport,Nassau,Bahamas,PID,MYPI,25.0830002,-77.3000031,0,-5,U,America/Nassau
606,5858,New Bight Airport,Cat Island,Bahamas,TBI,MYCB,24.3153,-75.452301,5,-5,U,America/Nassau
607,2057,Bahrain International Airport,Bahrain,Bahrain,BAH,OBBI,26.2707996,50.6335983,6,3,U,Asia/Bahrain
608,2058,Sheik Isa Air Base,Bahrain,Bahrain,\N,OBBS,25.9183998,50.5905991,136,3,U,Asia/Bahrain
609,3069,Shah Amanat International Airport,Chittagong,Bangladesh,CGP,VGEG,22.2495995,91.8133011,12,6,U,Asia/Dhaka
610,3070,Ishurdi Airport,Ishurdi,Bangladesh,IRD,VGIS,24.1525002,89.0494003,45,6,U,Asia/Dhaka
611,6176,Barisal Airport,Barisal,Bangladesh,BZL,VGBR,22.8010006,90.3012009,23,6,U,Asia/Dhaka
612,3068,Cox's Bazar Airport,Cox's Bazar,Bangladesh,CXB,VGCB,21.4521999,91.9638977,12,6,U,Asia/Dhaka
613,3074,Osmany International Airport,Sylhet Osmani,Bangladesh,ZYL,VGSY,24.9631996,91.8667984,50,6,U,Asia/Dhaka
614,3073,Saidpur Airport,Saidpur,Bangladesh,SPD,VGSD,25.7591991,88.9088974,125,6,U,Asia/Dhaka
615,3075,Tejgaon Airport,Dhaka,Bangladesh,\N,VGTJ,23.7787991,90.3826981,24,6,U,Asia/Dhaka
616,3071,Jessore Airport,Jessore,Bangladesh,JSR,VGJR,23.1837997,89.1607971,20,6,U,Asia/Dhaka
617,3076,Hazrat Shahjalal International Airport,Dhaka,Bangladesh,DAC,VGZR,23.843347,90.397783,30,6,U,Asia/Dhaka
618,3072,Shah Mokhdum Airport,Rajshahi,Bangladesh,RJH,VGRJ,24.4372005,88.6165009,64,6,U,Asia/Dhaka
619,2875,Sir Grantley Adams International Airport,Bridgetown,Barbados,BGI,TBPB,13.0746002,-59.4925003,169,-4,U,America/Barbados
620,6115,Hrodna Airport,Hrodna,Belarus,GNA,UMMG,53.6020012,24.0538006,443,3,E,Europe/Minsk
621,13421,Lipki Air Base,Minsk,Belarus,\N,UMMI,53.913545,27.708775,0,3,N,\N
622,2950,Gomel Airport,Gomel,Belarus,GME,UMGG,52.5270004,31.0167007,472,3,E,Europe/Minsk
623,2953,Minsk 1 Airport,Minsk,Belarus,MHP,UMMM,53.8644981,27.5396996,748,3,E,Europe/Minsk
624,2954,Minsk National Airport,Minsk 2,Belarus,MSQ,UMMS,53.8824997,28.0307007,670,3,E,Europe/Minsk
625,2951,Vitebsk Vostochny Airport,Vitebsk,Belarus,VTB,UMII,55.1264992,30.3495998,682,3,E,Europe/Minsk
626,11974,Baranavichi Air Base,Baranavichi,Belarus,\N,UMMA,53.0999985,26.0499992,0,\N,\N,\N
627,11975,Babruisk Air Base,Babruisk,Belarus,\N,UMNB,53.105,29.205,502,\N,\N,\N
628,6908,Brest Airport,Brest,Belarus,BQT,UMBB,52.108299,23.8981,468,3,E,Europe/Minsk
629,6116,Mogilev Airport,Mogilev,Belarus,MVQ,UMOO,53.9548988,30.0951004,637,3,E,Europe/Minsk
630,14089,Osovtsy Air Base,Byaroza,Belarus,\N,UMMO,52.5569992,24.8840008,0,\N,\N,\N
631,6819,Borovaya Airfield,Minsk,Belarus,\N,UMMB,53.9604611,27.6505961,0,3,E,Europe/Minsk
632,300,Beauvechain Air Base,Beauvechain,Belgium,\N,EBBE,50.7585983,4.7683301,370,1,E,Europe/Brussels
633,302,Brussels Airport,Brussels,Belgium,BRU,EBBR,50.9014015,4.48443985,184,1,E,Europe/Brussels
634,303,Jehonville Air Base,Bertrix,Belgium,\N,EBBX,49.8917007,5.22388983,1514,1,E,Europe/Brussels
635,301,Kleine Brogel Air Base,Kleine Brogel,Belgium,\N,EBBL,51.168301,5.47,200,1,E,Europe/Brussels
636,8872,Namur-Suarlée Airfield,Namur,Belgium,\N,EBNM,50.487999,4.76892,594,1,E,Europe/Brussels
637,8873,Kiewit Airfield Hasselt,Hasselt,Belgium,\N,EBZH,50.970001,5.37507,141,1,E,Europe/Brussels
638,8868,Spa (la Sauvenière) Airfield,Spa,Belgium,\N,EBSP,50.482498,5.9103,1581,1,E,Europe/Brussels
639,299,Antwerp International Airport (Deurne),Antwerp,Belgium,ANR,EBAW,51.1893997,4.46027994,39,1,E,Europe/Brussels
640,8859,Goetsenhoven Air Base,GOETSENHOVEN,Belgium,\N,EBTN,50.7817001,4.95777988,246,1,E,Europe/Brussels
641,7810,Westkapelle heliport,Knokke,Belgium,\N,EBKW,51.3222237,3.29305601,10,1,U,Europe/Brussels
642,313,Saint Hubert Air Base,St.-hubert,Belgium,\N,EBSU,50.0344009,5.4408102,1930,1,E,Europe/Brussels
643,308,Wevelgem Airport,Kortrijk-vevelgem,Belgium,KJK,EBKT,50.8171997,3.20472002,64,1,E,Europe/Brussels
644,314,Ursel Air Base,Ursel,Belgium,\N,EBUL,51.1441994,3.47555995,95,1,E,Europe/Brussels
645,310,Ostend-Bruges International Airport,Ostend,Belgium,OST,EBOS,51.1988983,2.86222005,13,1,E,Europe/Brussels
646,309,Liège Airport,Liege,Belgium,LGG,EBLG,50.6374016,5.44322014,659,1,E,Europe/Brussels
647,312,Brustem Airfield Sint Truiden,Sint-truiden,Belgium,\N,EBST,50.791901,5.20167,246,1,E,Europe/Brussels
648,311,Zutendaal Air Base,Zutendaal,Belgium,\N,EBSL,50.9474983,5.59055996,312,1,E,Europe/Brussels
649,305,Chièvres Air Base,Chievres,Belgium,\N,EBCV,50.5758018,3.83100009,194,1,E,Europe/Brussels
650,307,Florennes Air Base,Florennes,Belgium,\N,EBFS,50.2433014,4.64583015,935,1,E,Europe/Brussels
651,306,Koksijde Air Base,Koksijde,Belgium,\N,EBFN,51.0903015,2.65278006,20,1,E,Europe/Brussels
652,304,Brussels South Charleroi Airport,Charleroi,Belgium,CRL,EBCI,50.459202,4.45382,614,1,E,Europe/Brussels
653,316,Zoersel (Oostmalle) Airfield,Zoersel,Belgium,OBL,EBZR,51.264702,4.75333,53,1,E,Europe/Brussels
654,315,Weelde Air Base,Weelde,Belgium,\N,EBWE,51.3947983,4.96018982,105,1,E,Europe/Brussels
655,11452,Leopoldsburg Airfield,Leopoldsburg,Belgium,\N,EBLE,51.12,5.3072222,207,1,E,\N
656,4279,San Pedro Airport,San Pedro,Belize,SPR,MZSP,17.9139,-87.9711,4,-6,U,America/Belize
657,1957,Philip S. W. Goldson International Airport,Belize City,Belize,BZE,MZBZ,17.5391006,-88.308197,15,-6,U,America/Belize
658,8227,Birchwood Airport,Belmopan,Belize,\N,PABV,61.4165001,-149.507004,83,-9,U,America/Anchorage
659,12104,Parakou Airport,Parakou,Benin,PKO,DBBP,9.35768986,2.60967994,1266,1,U,\N
660,245,Cadjehoun Airport,Cotonou,Benin,COO,DBBB,6.35723019,2.38435006,19,1,N,Africa/Porto-Novo
661,12106,Kandi Airport,Kandi,Benin,KDC,DBBK,11.14479,2.940381,951,1,U,\N
662,4069,L.F. Wade International International Airport,Bermuda,Bermuda,BDA,TXKF,32.3639984,-64.6787033,12,-4,A,Atlantic/Bermuda
663,3155,Paro Airport,Thimphu,Bhutan,PBH,VQPR,27.4032001,89.4245987,7332,6,N,Asia/Thimphu
664,11644,Gelephu Airport,Gelephu,Bhutan,GLU,VQGP,26.88456,90.46412,980,6,N,\N
665,11389,Bathpalathang Airport,Jakar,Bhutan,BUT,VQBT,27.5622,90.7471,8485,6,N,\N
666,6056,Capitán de Av. Emilio Beltrán Airport,Guayaramerín,Bolivia,GYA,SLGY,-10.8205996,-65.3455963,557,-4,U,America/La_Paz
667,2771,Viru Viru International Airport,Santa Cruz,Bolivia,VVI,SLVR,-17.6448,-63.135399,1224,-4,U,America/La_Paz
668,2772,Yacuiba Airport,Yacuiba,Bolivia,BYC,SLYA,-21.9608994,-63.6516991,2112,-4,U,America/La_Paz
669,6060,Capitán Av. German Quiroga G. Airport,San Borja,Bolivia,SRJ,SLSB,-14.8591995,-66.7375031,633,-4,U,America/La_Paz
670,8969,Copacabana Airport,Copacabana,Bolivia,\N,SLCC,-16.1910992,-69.0955963,12591,-4,U,America/La_Paz
671,4247,El Trompillo Airport,Santa Cruz,Bolivia,SRZ,SLET,-17.8115997,-63.1715012,1371,-4,U,America/La_Paz
672,6058,Capitán Av. Selin Zeitun Lopez Airport,Riberalta,Bolivia,RIB,SLRI,-11,-66,462,-4,U,America/La_Paz
673,6057,Puerto Rico Airport,Puerto Rico/Manuripi,Bolivia,PUR,SLPR,-11.107663,-67.551155,597,-4,U,America/La_Paz
674,6059,Reyes Airport,Reyes,Bolivia,REY,SLRY,-14.3044,-67.353401,935,-4,U,America/La_Paz
675,2761,Capitán Aníbal Arab Airport,Cobija,Bolivia,CIJ,SLCO,-11.0403996,-68.7829971,889,-4,U,America/La_Paz
676,2762,El Alto International Airport,La Paz,Bolivia,LPB,SLLP,-16.5132999,-68.1922989,13355,-4,U,America/La_Paz
677,2760,Chimore Airport,Chapacura,Bolivia,CCA,SLCH,-16.976834,-65.145568,875,-4,U,America/La_Paz
678,2764,Capitan Nicolas Rojas Airport,Potosi,Bolivia,POI,SLPO,-19.5431004,-65.7237015,12913,-4,U,America/La_Paz
679,2763,Juan Mendoza Airport,Oruro,Bolivia,ORU,SLOR,-17.9626007,-67.0762024,12152,-4,U,America/La_Paz
680,2759,Jorge Wilsterman International Airport,Cochabamba,Bolivia,CBB,SLCB,-17.4211006,-66.1771011,8360,-4,U,America/La_Paz
681,2758,Bermejo Airport,Bermejo,Bolivia,BJO,SLBJ,-22.7733002,-64.3128967,1249,-4,U,America/La_Paz
682,7317,Rurenabaque Airport,Rerrenabaque,Bolivia,RBQ,SLRQ,-14.4279003,-67.4968033,676,-4,U,America/La_Paz
683,7313,Uyuni Airport,Uyuni,Bolivia,UYU,SLUY,-20.4463005,-66.8483963,11136,-4,U,America/La_Paz
684,2769,Teniente Av. Jorge Henrich Arauz Airport,Trinidad,Bolivia,TDD,SLTR,-14.8186998,-64.9179993,509,-4,U,America/La_Paz
685,2768,Capitan Oriel Lea Plaza Airport,Tarija,Bolivia,TJA,SLTJ,-21.5557003,-64.7013016,6079,-4,U,America/La_Paz
686,2770,Teniente Coronel Rafael Pabón Airport,Villa Montes,Bolivia,VLM,SLVM,-21.2551994,-63.4056015,1305,-4,U,America/La_Paz
687,2766,Santa Ana Del Yacuma Airport,Santa Ana,Bolivia,SBL,SLSA,-13.7622004,-65.4352036,472,-4,U,America/La_Paz
688,2765,Capitán Av. Salvador Ogaya G. airport,Puerto Suarez,Bolivia,PSZ,SLPS,-18.975301,-57.820599,440,-4,U,America/La_Paz
689,2767,Juana Azurduy De Padilla Airport,Sucre,Bolivia,SRE,SLSU,-19.0070992,-65.2886963,9540,-4,U,America/La_Paz
690,1646,Sarajevo International Airport,Sarajevo,Bosnia and Herzegovina,SJJ,LQSA,43.8246002,18.3314991,1708,1,E,Europe/Sarajevo
691,1645,Mostar International Airport,Mostar,Bosnia and Herzegovina,OMO,LQMO,43.2829018,17.8458996,156,1,E,Europe/Sarajevo
692,6947,Tuzla International Airport,Null,Bosnia and Herzegovina,TZL,LQTZ,44.4586983,18.7248001,784,1,E,Europe/Sarajevo
693,5794,Banja Luka International Airport,Banja Luka,Bosnia and Herzegovina,BNX,LQBK,44.9413986,17.2975006,400,1,E,Europe/Sarajevo
694,5608,Orapa Airport,Orapa,Botswana,ORP,FBOR,-21.266701,25.3167,3100,2,U,Africa/Gaborone
695,877,Francistown Airport,Francistown,Botswana,FRW,FBFT,-21.1595993,27.4745007,3283,2,U,Africa/Gaborone
696,5607,Ghanzi Airport,Ghanzi,Botswana,GNZ,FBGZ,-21.6924992,21.6581001,3730,2,U,Africa/Gaborone
697,7686,Camp Okavango Airport,Okavango Delta,Botswana,\N,FBCO,-19.131115,23.102505,3158,2,U,Africa/Gaborone
698,11804,Sua Pan Airport,Sowa,Botswana,SXN,FBSN,-20.5534,26.115801,2985,\N,\N,\N
699,13019,Delta Camp Airport,Delta Camp,Botswana,\N,FBDT,-19.5323,23.0925,3140,2,N,\N
700,8053,Khwai River Lodge Airport,Khwai River,Botswana,KHW,FBKR,-19.1499996,23.7830009,3000,2,N,Africa/Gaborone
701,882,Selebi Phikwe Airport,Selebi-phikwe,Botswana,PKW,FBSP,-22.0583,27.8288,2925,2,U,Africa/Gaborone
702,881,Sir Seretse Khama International Airport,Gaberone,Botswana,GBE,FBSK,-24.555201,25.9182,3299,2,U,Africa/Gaborone
703,13805,Hunda Airport,Tubu Tree Camp,Botswana,\N,FBHU,-19.2765,22.475646,3195,2,N,\N
704,13762,Vumbura Airport,Vumburu,Botswana,\N,FBVM,-18.955395,22.814533,3185,2,N,\N
705,879,Kasane Airport,Kasane,Botswana,BBK,FBKE,-17.8328991,25.1623993,3289,2,U,Africa/Gaborone
706,878,Jwaneng Airport,Jwaneng,Botswana,JWA,FBJW,-24.6023006,24.691,3900,2,U,Africa/Gaborone
707,880,Maun Airport,Maun,Botswana,MUB,FBMN,-19.9726009,23.4311008,3093,2,U,Africa/Gaborone
708,5609,Shakawe Airport,Shakawe,Botswana,SWX,FBSW,-18.3738995,21.8325996,3379,2,U,Africa/Gaborone
709,5610,Limpopo Valley Airport,Tuli Lodge,Botswana,TLD,FBTL,-22.1891994,29.1268997,1772,2,U,Africa/Gaborone
710,2613,Leite Lopes Airport,Ribeirao Preto,Brazil,RAO,SBRP,-21.1363888,-47.7766685,1806,-3,S,America/Sao_Paulo
711,2612,Santos Dumont Airport,Rio De Janeiro,Brazil,SDU,SBRJ,-22.9104996,-43.1631012,11,-3,S,America/Sao_Paulo
712,2614,Santa Cruz Air Force Base,Rio De Janeiro,Brazil,SNZ,SBSC,-22.9324,-43.719101,10,-3,S,America/Sao_Paulo
713,2615,Professor Urbano Ernesto Stumpf Airport,Sao Jose Dos Campos,Brazil,SJK,SBSJ,-23.2292004,-45.8614998,2120,-3,S,America/Sao_Paulo
714,11204,Posto Leonardo Vilas Boas Airport,Chapada dos Guimaraes,Brazil,\N,SWPL,-12.1983328,-53.3816681,1083,-4,S,\N
715,2605,Porto Nacional Airport,Porto Nacional,Brazil,PNB,SBPN,-10.7194004,-48.3997002,870,-3,S,America/Fortaleza
716,2606,Ponta Porã Airport,Ponta Pora,Brazil,PMG,SBPP,-22.5496006,-55.7025986,2156,-4,S,America/Campo_Grande
717,2604,Senador Nilo Coelho Airport,Petrolina,Brazil,PNZ,SBPL,-9.36240959,-40.5690994,1263,-3,S,America/Fortaleza
718,2609,Plácido de Castro Airport,Rio Branco,Brazil,RBR,SBRB,-9.86888885,-67.898056,633,-5,S,America/Rio_Branco
719,2610,Guararapes - Gilberto Freyre International Airport,Recife,Brazil,REC,SBRF,-8.12648964,-34.9235992,33,-3,S,America/Fortaleza
720,2607,Governador Jorge Teixeira de Oliveira Airport,Porto Velho,Brazil,PVH,SBPV,-8.70928955,-63.9023018,290,-4,S,America/Boa_Vista
721,2623,Senador Petrônio Portela Airport,Teresina,Brazil,THE,SBTE,-5.05993986,-42.8235016,219,-3,S,America/Fortaleza
722,2624,Tefé Airport,Tefe,Brazil,TFF,SBTF,-3.38294005,-64.7240982,188,-4,S,America/Boa_Vista
723,2622,Trombetas Airport,Oriximina,Brazil,TMT,SBTB,-1.48959994,-56.396801,287,-3,S,America/Belem
724,2626,Telêmaco Borba Airport,Telemaco Borba,Brazil,TEC,SBTL,-24.3178005,-50.6515999,2610,-3,S,America/Sao_Paulo
725,2627,Tiriós Airport,Obidos Tirios,Brazil,\N,SBTS,2.22347,-55.946098,1127,-3,S,America/Belem
726,2625,Tarauacá Airport,Tarauaca,Brazil,TRQ,SBTK,-8.15526009,-70.7833023,646,-5,S,America/Rio_Branco
727,2618,Congonhas Airport,Sao Paulo,Brazil,CGH,SBSP,-23.6261101,-46.6563873,2631,-3,S,America/Sao_Paulo
728,2619,Prof. Eribelto Manoel Reino State Airport,Sao Jose Do Rio Preto,Brazil,SJP,SBSR,-20.8166008,-49.4065018,1784,-3,S,America/Sao_Paulo
729,2616,Marechal Cunha Machado International Airport,Sao Luis,Brazil,SLZ,SBSL,-2.58536005,-44.2341003,178,-3,S,America/Fortaleza
730,2621,Deputado Luiz Eduardo Magalhães International Airport,Salvador,Brazil,SSA,SBSV,-12.9086113,-38.3224983,64,-3,S,America/Fortaleza
731,2620,Base Aérea de Santos Airport,Santos,Brazil,SSZ,SBST,-23.9280567,-46.2997208,10,-3,S,America/Sao_Paulo
732,2589,Ponta Pelada Airport,Manaus,Brazil,PLL,SBMN,-3.14603996,-59.9863014,267,-4,S,America/Boa_Vista
733,2590,Zumbi dos Palmares Airport,Maceio,Brazil,MCZ,SBMO,-9.5108099,-35.7916985,387,-3,S,America/Fortaleza
734,2587,Mário Ribeiro Airport,Montes Claros,Brazil,MOC,SBMK,-16.7068996,-43.8189011,2191,-3,S,America/Sao_Paulo
735,2592,Dix-Sept Rosado Airport,Mocord,Brazil,MVF,SBMS,-5.20192003,-37.3642998,76,-3,S,America/Fortaleza
736,2593,Campo de Marte Airport,Sao Paulo,Brazil,\N,SBMT,-23.5091,-46.6377983,2368,-3,S,America/Sao_Paulo
737,2591,Alberto Alcolumbre Airport,Macapa,Brazil,MCP,SBMQ,0.050664,-51.0722008,56,-3,S,America/Fortaleza
738,2584,João Correa da Rocha Airport,Maraba,Brazil,MAB,SBMA,-5.36858988,-49.1380005,357,-3,S,America/Belem
739,11203,Cáceres Airport,Caceres,Brazil,CCX,SWKC,-16.0436001,-57.6299019,492,-4,S,\N
740,2583,Lagoa Santa Airport,Lagoa Santa,Brazil,\N,SBLS,-19.6616001,-43.8964005,2795,-3,S,America/Sao_Paulo
741,2586,Regional de Maringá - Sílvio Nane Junior Airport,Maringa,Brazil,MGF,SBMG,-23.4794445,-52.0122223,1788,-3,S,America/Sao_Paulo
742,2585,Monte Dourado Airport,Almeirim,Brazil,MEU,SBMD,-0.889839,-52.6022,677,-3,S,America/Belem
743,2600,Prefeito Doutor João Silva Filho Airport,Parnaiba,Brazil,PHB,SBPB,-2.89374995,-41.7319984,16,-3,S,America/Fortaleza
744,2601,Poços de Caldas - Embaixador Walther Moreira Salles Airport,Pocos De Caldas,Brazil,POO,SBPC,-21.8430004,-46.5679016,4135,-3,S,America/Sao_Paulo
745,2599,Salgado Filho Airport,Porto Alegre,Brazil,POA,SBPA,-29.9944,-51.1713982,11,-3,S,America/Sao_Paulo
746,2603,João Simões Lopes Neto International Airport,Pelotas,Brazil,PET,SBPK,-31.718399,-52.327702,59,-3,S,America/Sao_Paulo
747,2602,Lauro Kurtz Airport,Passo Fundo,Brazil,PFB,SBPF,-28.243999,-52.326599,2376,-3,S,America/Sao_Paulo
748,2595,Ministro Victor Konder International Airport,Navegantes,Brazil,NVT,SBNF,-26.879999,-48.651402,18,-3,S,America/Sao_Paulo
749,2596,Santo Ângelo Airport,Santo Angelo,Brazil,GEL,SBNM,-28.2817,-54.169102,1056,-3,S,America/Sao_Paulo
750,2594,Manicoré Airport,Manicore,Brazil,MNX,SBMY,-5.81137991,-61.2783012,174,-4,S,America/Boa_Vista
751,2598,Oiapoque Airport,Oioiapoque,Brazil,OYK,SBOI,3.85548997,-51.7969017,63,-3,S,America/Fortaleza
752,2597,Governador Aluízio Alves International Airport,Natal,Brazil,NAT,SBSG,-5.768056,-35.376111,272,-3,S,America/Fortaleza
753,6038,Frank Miloye Milenkowichi–Marília State Airport,Marília,Brazil,MII,SBML,-22.1968994,-49.9263992,2122,-3,S,America/Sao_Paulo
754,6039,Vitória da Conquista Airport,Vitória Da Conquista,Brazil,VDC,SBQV,-14.8627996,-40.8630981,3002,-3,S,America/Fortaleza
755,6037,Macaé Airport,Macaé,Brazil,MEA,SBME,-22.3430004,-41.7659988,8,-3,S,America/Sao_Paulo
756,6041,Toledo Airport,Toledo,Brazil,TOW,SBTD,-24.6863,-53.697498,1843,-3,S,America/Sao_Paulo
757,6044,Sorocaba Airport,Sorocaba,Brazil,SOD,SDCO,-23.478001,-47.490002,2077,-3,S,America/Sao_Paulo
758,6040,Santa Maria Airport,Santa Maria,Brazil,RIA,SBSM,-29.711399,-53.688202,287,-3,S,America/Sao_Paulo
759,11211,Cangapara Airport,Floriano,Brazil,FLB,SNQG,-6.84638977,-43.077301,689,-3,N,\N
760,11212,Picos Airport,Picos,Brazil,PCS,SNPC,-7.06205988,-41.5237007,1050,-3,N,\N
761,11210,Arapiraca Airport,Arapiraca,Brazil,APQ,SNAL,-9.77536011,-36.6292,886,-3,N,\N
762,6036,Coronel Horácio de Mattos Airport,Lençóis,Brazil,LEC,SBLE,-12.4822998,-41.2770004,1676,-3,S,America/Fortaleza
763,11295,São Miguel do Oeste Airport,Sao Miguel do Oeste,Brazil,SQX,SSOE,-26.781601,-53.5035019,2180,-3,S,\N
764,8260,Hotel Transamérica Airport,Una,Brazil,UNA,SBTC,-15.3551998,-38.9990005,20,-3,S,America/Fortaleza
765,8259,Oriximiná Airport,Oriximina,Brazil,ORX,SNOX,-1.71407998,-55.8362007,262,-3,S,America/Belem
766,13830,Fazenda Kajussol Airport,Alta Floresta D'Oeste,Brazil,\N,SJYD,-11.9647217,-61.6866684,636,-4,S,\N
767,6069,Santa Rosa Airport,Santa Rosa,Brazil,SRA,SSZR,-27.9067,-54.520401,984,-3,S,America/Sao_Paulo
768,6073,Ji-Paraná Airport,Ji-Paraná,Brazil,JPR,SWJI,-10.8708,-61.8465004,598,-4,S,America/Boa_Vista
769,6062,Mucuri Airport,Mucuri,Brazil,MVS,SNMU,-18.0489006,-39.8642006,276,-3,S,America/Fortaleza
770,8953,Base Aérea Airport,Anapolis,Brazil,\N,SBAN,-16.2292,-48.964298,3731,-3,S,America/Sao_Paulo
771,8952,Botucatu - Tancredo de Almeida Neves Airport,Botucatu,Brazil,QCJ,SDBK,-22.939501,-48.467999,3012,-3,S,America/Sao_Paulo
772,8954,Mário Pereira Lopes–São Carlos Airport,Sao Carlos,Brazil,QSC,SDSC,-21.875401,-47.903703,2649,-3,S,America/Sao_Paulo
773,13881,Costa Marques Airport,COSTA MARQUES,Brazil,CQS,SWCQ,-12.4210997,-64.2516022,555,-4,S,\N
774,8927,Lorenzo Airport,Morro de Sao Paulo,Brazil,\N,SNCL,-13.3894444,-38.9099998,3,-3,S,America/Fortaleza
775,2635,Mário de Almeida Franco Airport,Uberaba,Brazil,UBA,SBUR,-19.7647228,-47.9661102,2655,-3,S,America/Sao_Paulo
776,2636,Major Brigadeiro Trompowsky Airport,Varginha,Brazil,VAG,SBVG,-21.5900993,-45.4733009,3025,-3,S,America/Sao_Paulo
777,2633,Ten. Cel. Aviador César Bombonato Airport,Uberlandia,Brazil,UDI,SBUL,-18.883612,-48.225277,3094,-3,S,America/Sao_Paulo
778,2638,Eurico de Aguiar Salles Airport,Vitoria,Brazil,VIX,SBVT,-20.258057,-40.286388,11,-3,S,America/Sao_Paulo
779,2639,Iauaretê Airport,Iauarete,Brazil,\N,SBYA,0.60750002,-69.1857986,345,-4,S,America/Boa_Vista
780,2637,Brigadeiro Camarão Airport,Vilhena,Brazil,BVH,SBVH,-12.6943998,-60.0983009,2018,-4,S,America/Boa_Vista
781,2629,Tucuruí Airport,Tucurui,Brazil,TUR,SBTU,-3.78601003,-49.7202988,830,-3,S,America/Belem
782,2630,São Gabriel da Cachoeira Airport,Sao Gabriel,Brazil,SJL,SBUA,-0.14835,-66.9855,251,-4,S,America/Boa_Vista
783,2628,Tabatinga Airport,Tabatinga,Brazil,TBT,SBTT,-4.25567007,-69.9357986,279,-4,S,America/Boa_Vista
784,2632,Rubem Berta Airport,Uruguaiana,Brazil,URG,SBUG,-29.7821999,-57.0382004,256,-3,S,America/Sao_Paulo
785,2631,Paulo Afonso Airport,Paulo Alfonso,Brazil,PAV,SBUF,-9.40087986,-38.2505989,883,-3,S,America/Fortaleza
786,11206,Canarana Airport,Canarana,Brazil,CQA,SWEK,-13.5744438,-52.2705574,1314,-4,S,\N
787,6034,Orlando Bezerra de Menezes Airport,Juazeiro Do Norte,Brazil,JDO,SBJU,-7.21895981,-39.2700996,1392,-3,S,America/Fortaleza
788,11205,Tangará da Serra Airport,Tangara da Serra,Brazil,TGQ,SWTS,-14.6619997,-57.4435005,1460,-4,S,\N
789,11209,Sobral Airport,Sobral,Brazil,\N,SNOB,-3.67889,-40.336802,210,-3,N,\N
790,11207,Vila Bela da Santíssima Trindade Airport,Vila Bela da Santissima Trindade,Brazil,MTG,SWVB,-14.9942,-59.9458,660,-4,S,\N
791,11930,Chafei Amsei Airport,Barretos,Brazil,BAT,SBBT,-20.5844994,-48.594101,1898,\N,\N,\N
792,11931,Base de Aviação de Taubaté Airport,Taubaté,Brazil,QHP,SBTA,-23.0401001,-45.5159988,1908,\N,\N,\N
793,2640,Campo Fontenelle Airport,Piracununga,Brazil,QPS,SBYS,-21.9846001,-47.3348007,1968,-3,S,America/Sao_Paulo
794,9089,Estadual Arthur Siqueira Airport,Braganca Paulista,Brazil,BJP,SBBP,-22.979162,-46.537508,2887,-3,S,America/Sao_Paulo
795,9149,Americana Airport,Americana,Brazil,\N,SDAI,-22.7558002,-47.2694016,2085,-3,S,America/Sao_Paulo
796,11201,Vila Rica Airport,Vila Rica,Brazil,VLP,SWVC,-9.97944355,-51.1422234,892,-4,S,\N
797,2525,Araçatuba Airport,Aracatuba,Brazil,ARU,SBAU,-21.1413002,-50.4247017,1361,-3,S,America/Sao_Paulo
798,2524,Piloto Osvaldo Marques Dias Airport,Alta Floresta,Brazil,AFL,SBAT,-9.86638927,-56.1049995,948,-4,S,America/Campo_Grande
799,2527,Comandante Gustavo Kraemer Airport,Bage,Brazil,BGX,SBBG,-31.3904991,-54.1122017,600,-3,S,America/Sao_Paulo
800,2528,Pampulha - Carlos Drummond de Andrade Airport,Belo Horizonte,Brazil,PLU,SBBH,-19.8512001,-43.9505997,2589,-3,S,America/Sao_Paulo
801,2526,Val de Cans/Júlio Cezar Ribeiro International Airport,Belem,Brazil,BEL,SBBE,-1.37925005,-48.4762993,54,-3,S,America/Belem
802,2519,Campo Délio Jardim de Mattos Airport,Rio De Janeiro,Brazil,\N,SBAF,-22.875099,-43.384701,110,-3,S,America/Sao_Paulo
803,2520,Amapá Airport,Amapa,Brazil,\N,SBAM,2.07751,-50.8582,45,-3,S,America/Fortaleza
804,2518,Conceição do Araguaia Airport,Conceicao Do Araguaia,Brazil,CDJ,SBAA,-8.34834957,-49.3014984,653,-3,S,America/Belem
805,2522,Santa Maria Airport,Aracaju,Brazil,AJU,SBAR,-10.9840002,-37.0703011,23,-3,S,America/Fortaleza
806,2521,Araraquara Airport,Araracuara,Brazil,AQA,SBAQ,-21.8120003,-48.1329994,2334,-3,S,America/Sao_Paulo
807,2535,Cascavel Airport,Cascavel,Brazil,CAC,SBCA,-25.0002995,-53.5008011,2473,-3,S,America/Sao_Paulo
808,2536,Cachimbo Airport,Itaituba,Brazil,\N,SBCC,-9.33393955,-54.9654007,1762,-3,S,America/Belem
809,2534,Barra do Garças Airport,Barra Do Garcas,Brazil,BPG,SBBW,-15.8613005,-52.3889008,1147,-4,S,America/Campo_Grande
810,2538,Campo Grande Airport,Campo Grande,Brazil,CGR,SBCG,-20.4687004,-54.6725006,1833,-4,S,America/Campo_Grande
811,2539,Serafin Enoss Bertaso Airport,Chapeco,Brazil,XAP,SBCH,-27.1341991,-52.656601,2146,-3,S,America/Sao_Paulo
812,2537,Tancredo Neves International Airport,Belo Horizonte,Brazil,CNF,SBCF,-19.6244431,-43.9719429,2715,-3,S,America/Sao_Paulo
813,2530,Major Brigadeiro Doorgal Borges Airport,Barbacena,Brazil,\N,SBBQ,-21.2672,-43.761101,3657,-3,S,America/Sao_Paulo
814,2531,Presidente Juscelino Kubistschek International Airport,Brasilia,Brazil,BSB,SBBR,-15.8691673,-47.9208336,3497,-3,S,America/Sao_Paulo
815,2529,Bacacheri Airport,Curitiba,Brazil,BFH,SBBI,-25.4050999,-49.2319984,3057,-3,S,America/Sao_Paulo
816,2533,Atlas Brasil Cantanhede Airport,Boa Vista,Brazil,BVB,SBBV,2.84138894,-60.6922226,276,-4,S,America/Boa_Vista
817,2532,Bauru Airport,Bauru,Brazil,BAU,SBBU,-22.3449993,-49.0537987,2025,-3,S,America/Sao_Paulo
818,11177,Angra dos Reis Airport,Angra dos Reis,Brazil,\N,SDAG,-22.9752998,-44.3070984,10,-3,S,\N
819,11176,Umberto Modiano Airport,Buzios,Brazil,BZC,SBBZ,-22.7709999,-41.9628983,10,-3,S,\N
820,11178,Itaperuna Airport,Itaperuna,Brazil,ITP,SDUN,-21.2192993,-41.8759003,410,-3,S,\N
821,11146,Cristiano Ferreira Varella Airport,Muriae,Brazil,\N,SNBM,-21.1261005,-42.3944016,886,-3,S,\N
822,11145,Juscelino Kubitscheck Airport,Teofilo Otoni,Brazil,TFL,SNTO,-17.8922997,-41.5135994,1572,-3,S,\N
823,11175,Parati Airport,Paraty,Brazil,\N,SDTK,-23.2243996,-44.7202988,10,-3,S,\N
824,11198,Aripuanã Airport,Aripuana,Brazil,AIR,SWRP,-10.188278,-59.457273,623,-4,S,\N
825,11181,Saquarema Airport,Saquarema,Brazil,\N,SDSK,-22.9297218,-42.5069427,26,-3,S,\N
826,11199,Juruena Airport,Juruena,Brazil,JRN,SWJU,-10.3058329,-58.4894447,525,-4,S,\N
827,11179,Maricá Airport,Marica,Brazil,\N,SDMC,-22.9195,-42.830898,13,-3,S,\N
828,11180,Resende Airport,Resende,Brazil,REZ,SDRS,-22.4785004,-44.4803009,1320,-3,S,\N
829,10544,Guarapari Airport,Guarapari,Brazil,GUZ,SNGA,-20.6464996,-40.4919014,28,-3,S,\N
830,10155,Brigadeiro Cabral Airport,Divinopolis,Brazil,DIQ,SNDV,-20.1807003,-44.8708992,2608,-3,S,\N
831,10545,Ubatuba Airport,Ubatuba,Brazil,UBT,SDUB,-23.4410992,-45.0755997,13,-3,S,\N
832,9771,Cacoal Airport,Cacoal,Brazil,OAL,SSKW,-11.496,-61.4508,778,-4,N,America/Boa_Vista
833,9769,Plínio Alarcom Airport,Tres Lagoas,Brazil,TJL,SSTL,-20.7542,-51.6842003,1050,-4,S,America/Campo_Grande
834,10154,Pouso Alegre Airport,Pouso Alegre,Brazil,PPY,SNZA,-22.2891998,-45.9191017,2904,-3,S,\N
835,11143,Das Bandeirinhas Airport,Conselheiro Lafaiete,Brazil,\N,SNKF,-20.738585,-43.797444,3478,-3,S,\N
836,11142,Paracatu Airport,Paracatu,Brazil,\N,SNZR,-17.2425995,-46.8830986,2359,-3,S,\N
837,11144,Janaúba Airport,Janauba,Brazil,\N,SNAP,-15.732,-43.323102,1732,-3,S,\N
838,10794,Morro da Urca Heliport,Rio de Janeiro,Brazil,\N,SDHU,-22.9516678,-43.1658325,692,-3,S,\N
839,11200,Juína Airport,Juina,Brazil,JIA,SWJN,-11.419444,-58.701668,1083,-4,S,\N
840,2567,Itacoatiara Airport,Itaituba,Brazil,ITA,SBIC,-3.12725997,-58.4812012,142,-4,S,America/Boa_Vista
841,2568,Itaituba Airport,Itaituba,Brazil,ITB,SBIH,-4.24234009,-56.0007019,110,-3,S,America/Belem
842,2566,Altamira Airport,Altamira,Brazil,ATM,SBHT,-3.25391006,-52.2540016,369,-3,S,America/Belem
843,2570,Usiminas Airport,Ipatinga,Brazil,IPN,SBIP,-19.4706993,-42.4875984,784,-3,S,America/Sao_Paulo
844,2571,Francisco Vilela do Amaral Airport,Itumbiara,Brazil,ITR,SBIT,-18.4447002,-49.2134018,1630,-3,S,America/Sao_Paulo
845,2569,Bahia - Jorge Amado Airport,Ilheus,Brazil,IOS,SBIL,-14.816,-39.0331993,15,-3,S,America/Fortaleza
846,2562,Santa Genoveva Airport,Goiania,Brazil,GYN,SBGO,-16.632,-49.2206993,2450,-3,S,America/Sao_Paulo
847,2563,EMBRAER - Unidade Gavião Peixoto Airport,Macae,Brazil,\N,SBGP,-21.7737007,-48.4051018,1998,-3,S,America/Sao_Paulo
848,2561,Guajará-Mirim Airport,Guajara-mirim,Brazil,GJM,SBGM,-10.7863998,-65.2847977,478,-4,S,America/Boa_Vista
849,2565,Guaratinguetá Airport,Guaratingueta,Brazil,GUJ,SBGW,-22.7915993,-45.2047997,1761,-3,S,America/Sao_Paulo
850,2564,Guarulhos - Governador André Franco Montoro International Airport,Sao Paulo,Brazil,GRU,SBGR,-23.4355564,-46.4730568,2459,-3,S,America/Sao_Paulo
851,2578,Viracopos International Airport,Campinas,Brazil,VCP,SBKP,-23.0074005,-47.1344986,2170,-3,S,America/Sao_Paulo
852,2579,Lages Airport,Lajes,Brazil,LAJ,SBLJ,-27.7821007,-50.2815018,3065,-3,S,America/Sao_Paulo
853,2577,Presidente João Suassuna Airport,Campina Grande,Brazil,CPV,SBKG,-7.26992,-35.8964,1646,-3,S,America/Fortaleza
854,2581,Governador José Richa Airport,Londrina,Brazil,LDB,SBLO,-23.3335991,-51.1301003,1867,-3,S,America/Sao_Paulo
855,2582,Bom Jesus da Lapa Airport,Bom Jesus Da Lapa,Brazil,LAZ,SBLP,-13.2621002,-43.4081001,1454,-3,S,America/Fortaleza
856,2580,Lins Airport,Lins,Brazil,LIP,SBLN,-21.6639996,-49.7304993,1559,-3,S,America/Sao_Paulo
857,2573,Belém/Brigadeiro Protásio de Oliveira Airport,Belem,Brazil,\N,SBJC,-1.41416001,-48.460701,52,-3,S,America/Belem
858,2574,Francisco de Assis Airport,Juiz De Fora,Brazil,JDF,SBJF,-21.7915001,-43.3867989,2989,-3,S,America/Sao_Paulo
859,2572,Prefeito Renato Moreira Airport,Imperatriz,Brazil,IMP,SBIZ,-5.53129,-47.459999,432,-3,S,America/Fortaleza
860,2576,Lauro Carneiro de Loyola Airport,Joinville,Brazil,JOI,SBJV,-26.2245007,-48.7974014,15,-3,S,America/Sao_Paulo
861,2575,Presidente Castro Pinto International Airport,Joao Pessoa,Brazil,JPA,SBJP,-7.14583302,-34.9486122,217,-3,S,America/Fortaleza
862,11202,Inácio Luís do Nascimento Airport,Juara,Brazil,JUA,SIZX,-11.2966,-57.5495,870,-4,S,\N
863,2546,Caravelas Airport,Caravelas,Brazil,CRQ,SBCV,-17.6522999,-39.2531013,36,-3,S,America/Fortaleza
864,2545,Afonso Pena Airport,Curitiba,Brazil,CWB,SBCT,-25.5284996,-49.1758003,2988,-3,S,America/Sao_Paulo
865,2548,Marechal Rondon Airport,Cuiaba,Brazil,CGB,SBCY,-15.6528997,-56.1166992,617,-4,S,America/Campo_Grande
866,2549,Cruzeiro do Sul Airport,Cruzeiro do Sul,Brazil,CZS,SBCZ,-7.59990978,-72.7695007,637,-5,S,America/Rio_Branco
867,2547,Hugo Cantergiani Regional Airport,Caxias Do Sul,Brazil,CXJ,SBCX,-29.1970997,-51.1875,2472,-3,S,America/Sao_Paulo
868,2541,Diomício Freitas Airport,Criciuma,Brazil,CCM,SBCM,-28.7244434,-49.4213905,93,-3,S,America/Sao_Paulo
869,2542,Canoas Air Force Base,Porto Alegre,Brazil,\N,SBCO,-29.945928,-51.144413,26,-3,S,America/Sao_Paulo
870,2540,Brig. Lysias Augusto Rodrigues Airport,Carolina,Brazil,CLN,SBCI,-7.32043982,-47.4586983,565,-3,S,America/Fortaleza
871,2544,Corumbá International Airport,Corumba,Brazil,CMG,SBCR,-19.0119438,-57.6713905,461,-4,S,America/Campo_Grande
872,2543,Bartolomeu Lisandro Airport,Campos,Brazil,CAW,SBCP,-21.6982994,-41.3017006,57,-3,S,America/Sao_Paulo
873,2556,Fernando de Noronha Airport,Fernando Do Noronha,Brazil,FEN,SBFN,-3.85493,-32.423302,193,-3,S,America/Fortaleza
874,2558,Furnas Airport,Alpinopolis,Brazil,\N,SBFU,-20.7028008,-46.3353004,2413,-3,S,America/Sao_Paulo
875,2555,Hercílio Luz International Airport,Florianopolis,Brazil,FLN,SBFL,-27.6702785,-48.5525017,16,-3,S,America/Sao_Paulo
876,2560,Rio Galeão – Tom Jobim International Airport,Rio De Janeiro,Brazil,GIG,SBGL,-22.8099995,-43.2505569,28,-3,S,America/Sao_Paulo
877,2559,Pinto Martins International Airport,Fortaleza,Brazil,FOR,SBFZ,-3.77627993,-38.5326004,82,-3,S,America/Fortaleza
878,2551,Eduardo Gomes International Airport,Manaus,Brazil,MAO,SBEG,-3.03860998,-60.0497017,264,-4,S,America/Boa_Vista
879,2552,Jacareacanga Airport,Jacare-acanga,Brazil,JCR,SBEK,-6.23316002,-57.7769012,323,-3,S,America/Belem
880,2550,Presidente Prudente Airport,President Prudente,Brazil,PPB,SBDN,-22.1751003,-51.4245987,1477,-3,S,America/Sao_Paulo
881,2554,Cataratas International Airport,Foz Do Iguacu,Brazil,IGU,SBFI,-25.6002789,-54.4850006,786,-3,S,America/Sao_Paulo
882,2553,São Pedro da Aldeia Airport,Sao Pedro Da Aldeia,Brazil,\N,SBES,-22.8129005,-42.0926018,61,-3,S,America/Sao_Paulo
883,8247,Eirunepé Airport,Eirunepe,Brazil,ERN,SWEI,-6.63953018,-69.8797989,412,-4,S,America/Boa_Vista
884,8246,Urucu Airport,Porto Urucu,Brazil,\N,SWUY,-4.88422012,-65.3554001,243,-4,S,America/Boa_Vista
885,8249,Francisco Beltrão Airport,Francisco Beltrao,Brazil,FBE,SSFB,-26.0592003,-53.0634995,2100,-3,S,America/Sao_Paulo
886,8248,Concórdia Airport,Concordia,Brazil,CCI,SSCK,-27.1805992,-52.0527,2461,-3,S,America/Sao_Paulo
887,8244,Caçador Airport,Cacador,Brazil,CFC,SBCD,-26.7884007,-50.9398003,3376,-3,S,America/Sao_Paulo
888,8243,São Félix do Araguaia Airport,Sao Felix do Araguaia,Brazil,SXO,SWFX,-11.6323996,-50.6896019,650,-4,S,America/Campo_Grande
889,13121,Fazenda Vaticano Airport,Cruz,Brazil,\N,SSVV,-21.294443,-56.11861,1050,-3,U,\N
890,8245,Carauari Airport,Carauari,Brazil,CAF,SWCA,-4.87152004,-66.8974991,355,-4,S,America/Boa_Vista
891,12987,Humberto Ghizzo Bortoluzzi Regional Airport,Jaguaruna,Brazil,JJG,SBJA,-28.6753,-49.0596,120,-3,S,\N
892,8255,Fonte Boa Airport,Fonte Boa,Brazil,FBA,SWOB,-2.53260994,-66.0831985,207,-4,S,America/Boa_Vista
893,8256,Senadora Eunice Micheles Airport,Sao Paulo de Olivenca,Brazil,OLC,SDCG,-3.46792951,-68.9204121,335,-4,S,America/Boa_Vista
894,12980,Helisul I Heliport,Foz do Iguassu,Brazil,\N,SSHH,-25.6041679,-54.4936104,732,-3,S,\N
895,8253,Umuarama Airport,Umuarama,Brazil,UMU,SSUM,-23.7987003,-53.3138008,1558,-3,S,America/Sao_Paulo
896,8250,Confresa Airport,Confresa,Brazil,CFO,SJHG,-10.6344004,-51.5635986,781,-4,S,America/Campo_Grande
897,8254,Diamantina Airport,Diamantina,Brazil,DTI,SNDT,-18.2320004,-43.6503983,4446,-3,S,America/Sao_Paulo
898,7367,Presidente João Batista Figueiredo Airport,Sinop,Brazil,OPS,SWSI,-11.8850002,-55.5861092,1227,-4,S,America/Campo_Grande
899,7368,Gurupi Airport,Gurupi,Brazil,GRP,SWGI,-11.7396002,-49.1321983,1148,-3,S,America/Fortaleza
900,8152,Blumenau Airport,BLUMENAU,Brazil,BNU,SSBL,-26.8306007,-49.0903015,60,-3,S,America/Sao_Paulo
901,7364,Cabo Frio Airport,Cabo Frio,Brazil,CFB,SBCB,-22.9216995,-42.0742989,23,-3,S,America/Sao_Paulo
902,7675,Aeroclube Airport,Nova Iguacu,Brazil,QNV,SDNY,-22.7453003,-43.4603004,164,-3,S,America/Sao_Paulo
903,13230,9 de Maio - Teixeira de Freitas Airport,Teixeira de Freitas,Brazil,TXF,SNTF,-17.5244999,-39.668499,344,-3,S,\N
904,7369,Santana do Araguaia Airport,Santana do Araguaia,Brazil,CMP,SNKE,-9.31997013,-50.3284988,597,-3,S,America/Belem
905,8240,Redenção Airport,Redencao,Brazil,RDC,SNDC,-8.03328991,-49.9799004,670,-3,S,America/Belem
906,8239,Ourilândia do Norte Airport,Ourilandia do Norte,Brazil,OIA,SDOW,-6.76310015,-51.0499001,901,-3,S,America/Belem
907,8242,Bonito Airport,Bointo,Brazil,BYO,SJDB,-21.247299,-56.452499,1180,-4,S,America/Campo_Grande
908,8241,São Félix do Xingu Airport,Sao Felix do Xingu,Brazil,SXX,SNFX,-6.6413,-51.9523,656,-3,S,America/Belem
909,8237,Patos de Minas Airport,Patos de Minas,Brazil,POJ,SNPD,-18.6728001,-46.4911995,2793,-3,S,America/Sao_Paulo
910,8180,Zona da Mata Regional Airport,Juiz de Fora,Brazil,IZA,SDZY,-21.5130558,-43.1730576,1348,-3,S,America/Sao_Paulo
911,8238,Bauru - Arealva Airport,Bauru,Brazil,JTC,SJTC,-22.1668591,-49.0502867,1949,-3,S,America/Sao_Paulo
912,4209,Porto Seguro Airport,Porto Seguro,Brazil,BPS,SBPS,-16.438601,-39.080898,168,-3,S,America/Fortaleza
913,13643,Helisul IV Heliport,Foz Do Iguacu,Brazil,\N,SSHS,-25.6130562,-54.398056,676,-3,N,\N
914,4214,Brigadeiro Lysias Rodrigues Airport,Palmas,Brazil,PMW,SBPJ,-10.2915001,-48.3569984,774,-3,S,America/Fortaleza
915,4213,Iguatu Airport,Iguatu,Brazil,QIG,SNIG,-6.34664011,-39.2938004,699,-3,S,America/Fortaleza
916,13595,Fazenda Várzea Funda Airport,PRIMAVERA D'OESTE,Brazil,\N,SIEL,-16.5836105,-57.7322235,709,-4,S,\N
917,13500,Santo Domingo Airport,CONSELVAN,Brazil,\N,SCSN,-33.6563988,-71.6144028,246,-4,S,\N
918,13636,Comte. Rolim Adolfo Amaro–Jundiaí State Airport,Jundiai,Brazil,\N,SBJD,-23.180369,-46.944408,2484,-3,S,\N
919,13597,Primavera do Leste Airport,PRIMAVERA DO LESTE,Brazil,\N,SWPY,-15.5655556,-54.3377762,2149,-4,S,\N
920,13723,Augusto Severo Airport,Natal,Brazil,\N,SBNT,-5.91141987,-35.2476997,169,\N,\N,\N
921,13683,Fazenda São Nicolau Airport,COTRIGUACU,Brazil,\N,SWQT,-9.86444378,-58.2291679,738,0,U,\N
922,13772,Fazenda Uiapuru Airport,COMODORO,Brazil,\N,SWVJ,-13.6638889,-56.0022202,1519,-4,S,\N
923,13735,Flores Airport,MANAUS,Brazil,\N,SWFN,-3.07277799,-60.0211105,203,-4,S,\N
924,13668,Fazenda Jatobasso Airport,JARU,Brazil,\N,SIDG,-22.4291668,-55.5333328,2152,-4,S,\N
925,4215,Nelson Ribeiro Guimarães Airport,Caldas Novas,Brazil,CLV,SBCN,-17.7252998,-48.6074982,2247,-3,S,America/Sao_Paulo
926,13669,FIC Heliport,MACHADINHO D'OESTE,Brazil,\N,SIMC,-22.7113895,-47.1411095,1985,-4,S,\N
927,6477,Erechim Airport,Erechim,Brazil,ERM,SSER,-27.6618996,-52.2682991,2498,-3,S,America/Sao_Paulo
928,6735,Coronel Altino Machado de Oliveira Airport,Governador Valadares,Brazil,GVR,SBGV,-18.8952007,-41.9822006,561,-3,S,America/Sao_Paulo
929,13492,Ariquemes Airport,ARIQUEMES,Brazil,\N,SJOG,-9.88472176,-63.0488892,530,-4,S,\N
930,13491,Pimenta Bueno Airport,Pimenta Bueno,Brazil,PBQ,SWPM,-11.6415997,-61.1791,682,-4,S,\N
931,8258,Tapuruquara Airport,Santa Isabel do Rio Negro,Brazil,IRZ,SWTP,-0.3786,-64.9923,223,-4,S,America/Boa_Vista
932,8257,Humaitá Airport,Humaita,Brazil,HUW,SWHT,-7.53212023,-63.0721016,230,-4,S,America/Boa_Vista
933,7125,Amarais Airport,Campinas,Brazil,CPQ,SDAM,-22.8591995,-47.1082001,2008,-3,S,America/Sao_Paulo
934,13498,Prainha Airport,APUI,Brazil,\N,SWYN,-7.17287016,-59.8395996,197,-4,S,\N
935,13497,Fazenda Mequens Airport,ALTA FLORESTA D'OESTE,Brazil,\N,SJTF,-13.061944,-62.2574997,552,-4,S,\N
936,13499,Mostardas Airport,SANTO ANTONIO DO MATUPI,Brazil,\N,SSMT,-31.1035995,-50.9103012,59,-4,S,\N
937,12059,Itapiranga Airport,Itapiranga,Brazil,\N,SSYT,-27.1424999,-53.6857986,1247,-3,S,\N
938,12163,Jacarepaguá - Roberto Marinho Airport,Rio de Janeiro,Brazil,\N,SBJR,-22.987499,-43.369999,10,-3,S,\N
939,13493,Fazenda Spartacus Airport,COLNIZA,Brazil,\N,SIXZ,-24,-48.6083336,2346,-4,S,\N
940,4092,Maestro Wilson Fonseca Airport,Santarem,Brazil,STM,SBSN,-2.42472196,-54.7858315,198,-3,S,America/Belem
941,7383,Tancredo Thomas de Faria Airport,Guarapuava,Brazil,GPB,SBGU,-25.3875008,-51.5201988,3494,-3,S,America/Sao_Paulo
942,7378,Fazenda Colen Airport,Lucas do Rio Verde,Brazil,\N,SWFE,-13.3144436,-56.1127777,1345,-4,S,America/Campo_Grande
943,7533,Centro de Lançamento de Alcântara Airport,Alcantara,Brazil,\N,SNCW,-2.37299991,-44.3964005,148,-3,S,America/Fortaleza
944,13315,Ponta Grossa Airport - Comandante Antonio Amilton Beraldo,Ponta Grossa,Brazil,PGZ,SSZW,-25.1847,-50.1441,2588,-3,S,\N
945,7373,Barreiras Airport,Barreiras,Brazil,BRA,SNBR,-12.0789003,-45.0089989,2447,-3,S,America/Fortaleza
946,7370,Breves Airport,Breves,Brazil,BVS,SNVS,-1.63653004,-50.4435997,98,-3,S,America/Belem
947,7532,Carajás Airport,Parauapebas,Brazil,CKS,SBCJ,-6.11527777,-50.0013885,2064,-3,S,America/Belem
948,7372,Parintins Airport,Parintins,Brazil,PIN,SWPI,-2.67301989,-56.7771988,87,-4,S,America/Boa_Vista
949,7371,Soure Airport,Soure,Brazil,SFK,SNSW,-0.699431,-48.5209999,43,-3,S,America/Belem
950,13398,Novo Progresso Airport,Novo Progresso,Brazil,NPR,SJNP,-7.125833,-55.400833,794,-3,S,\N
951,13399,Adolino Bedin Regional Airport,Sorriso,Brazil,SMT,SBSO,-12.479177,-55.672341,1266,-4,S,\N
952,7376,Araguaína Airport,Araguaina,Brazil,AUX,SWGN,-7.22787,-48.240501,771,-3,S,America/Fortaleza
953,13397,Olhos D`água Airport,Agua Boa,Brazil,\N,SWHP,-14.019444,-52.152222,1506,-4,S,\N
954,7374,Santa Terezinha Airport,Santa Terezinha,Brazil,STZ,SWST,-10.4647217,-50.5186119,663,-4,S,America/Campo_Grande
955,7382,Maestro Marinho Franco Airport,Rondonopolis,Brazil,ROO,SWRD,-16.586,-54.7248,1467,-4,S,America/Campo_Grande
